     2.11           OBSERVATION DATA    M (MIXED)           RINEX VERSION / TYPE
teqc  2015Nov6      Yury Kirienko       20160209 15:29:19UTCPGM / RUN BY / DATE
Linux 2.4.21-27.ELsmp|Opteron|gcc|Linux x86_64|=+           COMMENT
TPS2RIN&BALRNX      RIGTC, GO PECNY     20160102 000302     COMMENT
GNSS DATA FROM STATION GOPE (RIGTC, GO PECNY)               COMMENT
GOPE                                                        MARKER NAME
11502M002                                                   MARKER NUMBER
PC GOPDL10          RIGTC, GO PECNY                         OBSERVER / AGENCY
01308               TPS NETG3           4.0 Dec,21,2012 p1  REC # / TYPE / VERS
30161               TPSCR.G3        TPSH                    ANT # / TYPE
  3979316.4389  1050312.2534  4857066.9036                  APPROX POSITION XYZ
        0.1114        0.0000        0.0000                  ANTENNA: DELTA H/E/N
     1     1                                                WAVELENGTH FACT L1/2
     8    C1    P1    P2    C2    L1    L2    S1    S2      # / TYPES OF OBSERV
    30.0000                                                 INTERVAL
teqc edited: all GLONASS satellites excluded                COMMENT
  2016     1     1     0     0    0.0000000     GPS         TIME OF FIRST OBS
    17                                                      LEAP SECONDS
                                                            END OF HEADER
 16  1  1  0  0  0.0000000  0  7G02G12G14G25G26G29G31
  22570682.112    22570680.4104   22570676.7364                  118609770.217 7
  92423201.82444        47.000          33.000
  22438374.270    22438373.2604   22438370.7344   22438371.345   117914478.663 7
  91881415.75344        47.000          33.000
  24441461.101    24441458.6534   24441458.8234                  128440706.672 5
 100083663.00841        39.000          13.000
  20353086.347    20353084.9514   20353086.1624   20353086.928   106956203.845 8
  83342500.34746        51.000          44.000
  24905314.903    24905314.4774   24905316.5034   24905315.903   130878326.079 4
 101983105.53341        34.000          10.000
  20345265.257    20345264.3084   20345262.5424   20345263.261   106915111.379 8
  83310483.79147        52.000          45.000
  21630901.560    21630900.5144   21630897.8384   21630898.618   113671167.263 8
  88574928.28746        50.000          40.000
 16  1  1  0 30  0.0000000  0  9G02G05G12G14G21G25G26G29G31
  23226392.931    23226391.2264   23226387.7834                  122055553.085 7
  95108227.27543        45.000          29.000
  24484543.416                                    24484541.787   128667158.080 5
                        39.000
  23472803.720    23472802.2004   23472800.7624   23472800.819   123350435.942 6
  96117225.19143        44.000          25.000
  25493571.160    25493567.6754   25493569.3944                  133969589.513 4
 104391884.7094         32.000
  24268804.352                                                   127533437.439 5
                        39.000
  20776552.580    20776551.1194   20776551.9494   20776552.931   109181530.985 8
  85076521.28446        52.000          42.000
  23773043.589    23773042.2644   23773043.2604   23773043.984   124928193.977 6
  97346639.12743        41.000          26.000
  20059039.800    20059038.9184   20059037.2334   20059037.755   105410989.826 8
  82138441.52847        53.000          46.000
  21307040.799    21307039.5384   21307037.0984   21307037.803   111969266.194 8
  87248771.60046        52.000          41.000
 16  1  1  1  0  0.0000000  0  9G02G05G12G20G21G25G26G29G31
  24125933.602    24125931.9754   24125928.8164                  126782663.070 6
  98791688.03942        41.000          21.000
  23840073.716    23840073.0364   23840070.8164   23840072.174   125280451.428 6
  97621117.50042        42.000          24.000
  24615241.667    24615241.2694   24615240.7394   24615241.357   129353984.384 5
 100795313.09341        37.000          15.000
  24408171.071    24408169.1394   24408169.4274                  128265810.036 5
  99947383.23741        38.000           9.000
  23187244.900    23187243.7374   23187243.4314                  121849811.282 6
  94947897.50142        42.000          24.000
  21465384.201    21465382.6264   21465384.1714   21465384.918   112801364.593 8
  87897170.32445        50.000          39.000
  22705764.317    22705763.3254   22705764.3254   22705764.846   119319605.297 7
  92976310.48144        45.000          31.000
  20072735.882    20072734.8824   20072733.1264   20072733.612   105482962.547 8
  82194524.23347        54.000          47.000
  21374636.967    21374635.7274   21374633.5744   21374633.867   112324485.245 8
  87525565.17746        52.000          41.000
 16  1  1  1 30  0.0000000  0  8G05G16G20G21G25G26G29G31
  23528248.729    23528248.1024   23528244.8784   23528246.211   123641800.383 6
  96344247.21643        44.000          27.000
  23905273.790    23905273.2974   23905270.3574                  125623068.897 6
  97888104.10141        41.000          18.000
  23396991.790    23396989.9234   23396989.0774                  122952037.457 6
  95806784.05442        41.000          21.000
  22267243.188    22267240.8714   22267240.1574                  117015179.724 7
  91180655.55944        46.000          33.000
  22390252.785    22390251.6094   22390252.1944   22390253.428   117661579.152 7
  91684349.72744        46.000          32.000
  21769891.919    21769890.7224   21769892.5864   21769892.473   114401564.108 7
  89144070.74945        48.000          37.000
  20361284.606    20361283.6684   20361282.0214   20361282.625   106999295.772 8
  83376082.52247        52.000          45.000
  21830799.690    21830797.9744   21830796.1284   21830797.029   114721630.383 7
  89393469.53545        49.000          39.000
 16  1  1  2  0  0.0000000  0  8G05G16G20G21G25G26G29G31
  23609370.900    23609369.9714   23609367.9134   23609368.522   124068098.180 6
  96676426.91543        43.000          27.000
  22796138.921    22796137.7964   22796136.3304                  119794527.540 7
  93346384.47243        45.000          29.000
  22589735.040    22589732.4394   22589732.7254                  118709876.370 7
  92501205.03343        45.000          28.000
  21574817.500    21574815.7944   21574813.9504                  113376466.300 7
  88345296.35545        49.000          38.000
  23504773.076    23504771.4314   23504772.6184   23504774.074   123518415.860 6
  96248117.23043        42.000          25.000
  21044375.624    21044374.3934   21044375.8774   21044376.144   110588949.513 8
  86173202.27446        52.000          42.000
  20886801.494    20886800.8884   20886799.0144   20886799.876   109760906.189 8
  85527986.58246        51.000          42.000
  22620173.157    22620171.9854   22620170.3754   22620171.265   118869811.150 7
  92625816.17044        46.000          33.000
 16  1  1  2 30  0.0000000  0 10G05G16G18G20G21G25G26G27G29G31
  24085875.645    24085874.4354   24085873.4174   24085874.143   126572145.156 6
  98627631.50642        40.000          23.000
  21839807.526    21839806.1894   21839804.3924                  114768973.578 7
  89430368.75245        48.000          35.000
  23972309.364    23972308.4264   23972306.7774                  125975355.623 5
  98162610.60341        39.000          18.000
  22098892.280    22098890.2154   22098888.2924                  116130481.208 7
  90491287.81644        46.000          32.000
  21152097.449    21152095.4094   21152093.2374                  111155057.519 7
  86614329.08946        47.000          40.000
  24748978.337    24748977.8304   24748980.3384   24748981.020   130056763.127 5
 101342932.40341        36.000          12.000
  20610268.560    20610267.3484   20610268.8344   20610268.980   108307701.059 8
  84395606.06047        52.000          45.000
  24700383.871    24700381.4764   24700382.1444   24700384.105   129801404.702 5
 101143948.48341        38.000          17.000
  21607736.164    21607735.5804   21607733.4054   21607734.178   113549443.800 7
  88480093.85745        49.000          38.000
  23647790.070    23647789.2134   23647787.4874   23647788.250   124269968.941 6
  96833729.83943        43.000          27.000
 16  1  1  3  0  0.0000000  0  8G16G18G20G21G26G27G29G31
  21125995.051    21125993.1554   21125991.2904                  111017863.182 7
  86507425.87746        49.000          40.000
  22971185.746    22971183.7564   22971182.6294                  120714426.658 6
  94063188.33443        43.000          27.000
  22001209.536    22001208.1164   22001206.3774                  115617160.713 7
  90091298.44044        45.000          33.000
  21012325.243    21012323.5684   21012321.4934                  110420554.519 7
  86041989.54046        48.000          40.000
  20533105.089    20533103.5284   20533105.2334   20533105.578   107902203.729 8
  84079634.24647        54.000          45.000
  23611201.323    23611200.2594   23611202.0244   23611201.159   124077721.133 6
  96683937.12843        41.000          25.000
  22484838.365    22484836.7864   22484834.7634   22484835.703   118158641.932 7
  92071676.94044        47.000          32.000
  24798992.889    24798991.7494   24798989.2704   24798988.362   130319575.485 6
 101547709.12841        41.000          18.000
 16  1  1  3 30  0.0000000  0  8G10G16G18G20G21G26G27G29
  23909626.218    23909625.2594   23909625.8134   23909626.224   125645947.442 6
  97905930.48042        41.000          24.000
  20740356.598    20740355.0714   20740353.0764                  108991321.205 8
  84928302.36546        51.000          42.000
  22144652.389    22144650.9734   22144649.7084                  116370970.129 7
  90678677.66644        46.000          33.000
  22318291.964    22318289.3544   22318288.5964                  117283439.702 7
  91389697.58344        46.000          31.000
  21141136.434    21141134.7744   21141132.3844                  111097461.703 7
  86569449.82346        47.000          40.000
  20843086.519    20843085.3434   20843086.9714   20843087.286   109531168.456 8
  85348957.34546        52.000          44.000
  22593875.876    22593874.9844   22593874.9254   22593876.137   118731642.110 7
  92518161.60944        46.000          33.000
  23483053.999    23483053.0144   23483049.1424   23483050.067   123404296.707 6
  96159199.25443        44.000          26.000
 16  1  1  4  0  0.0000000  0 11G08G10G15G16G18G20G21G22G26G27G29
  24408163.163                                    24408164.107   128265766.430 6
                        40.000
  22698507.460    22698506.8814   22698507.6204   22698506.999   119281484.399 7
  92946610.12844        46.000          32.000
  24693199.697    24693198.5764   24693198.8754   24693196.870   129763654.148 4
 101114527.77541        33.000          10.000
  20743330.015    20743328.4024   20743326.8354                  109006946.462 8
  84940477.82446        50.000          42.000
  21582311.754    21582309.7404   21582307.6494                  113415846.978 8
  88375984.69245        50.000          37.000
  23012566.797    23012565.8334   23012562.4524                  120931876.873 6
  94232635.34143        43.000          25.000
  21504030.869    21504029.0764   21504027.1504                  113004485.564 7
  88055442.40645        49.000          39.000
  23952059.470    23952056.6314   23952054.9054                  125868924.267 6
  98079677.19842        42.000          22.000
  21522536.249    21522535.2644   21522536.4514   21522537.151   113101700.297 8
  88131189.56046        50.000          40.000
  21691962.935    21691961.3244   21691961.9964   21691962.240   113992054.150 8
  88824976.25345        50.000          39.000
  24570313.625    24570312.6564   24570310.9694   24570314.092   129117887.766 5
 100611347.15041        36.000          18.000
 16  1  1  4 30  0.0000000  0 10G08G10G15G16G18G20G21G22G26G27
  23311613.631    23311612.1154   23311613.5324   23311614.519   122503359.505 6
  95457158.47943        43.000          27.000
  21675458.531    21675457.5854   21675458.2754   21675458.455   113905329.015 8
  88757398.83946        50.000          40.000
  24238605.726    24238604.1984   24238602.8374   24238603.964   127374741.519 6
  99253037.16042        40.000          20.000
  21150177.303    21150175.6794   21150173.7424                  111144941.956 8
  86606448.11146        51.000          40.000
  21345237.556    21345235.8914   21345233.9654                  112170015.333 8
  87405206.94845        50.000          39.000
  24001496.790    24001494.8624   24001493.6824                  126128735.120 6
  98282134.95041        40.000          18.000
  22056984.303    22056982.6434   22056980.4074                  115910274.854 7
  90319693.83745        48.000          37.000
  22787435.726    22787434.0584   22787430.8114                  119748794.328 7
  93310746.25044        47.000          31.000
  22507602.250    22507601.0154   22507604.0954   22507603.845   118278255.863 7
  92164868.42544        45.000          34.000
  20959164.667    20959163.4894   20959163.7774   20959164.517   110141175.569 8
  85824291.73046        51.000          44.000
 16  1  1  5  0  0.0000000  0 10G07G08G10G15G16G18G21G22G26G27
  24638060.694    24638059.4604   24638057.3764   24638058.267   129473879.860 5
 100888737.29141        38.000          15.000
  22298818.519    22298817.2824   22298818.2554   22298819.182   117181088.353 7
  91309934.41344        45.000          33.000
  20943478.187    20943477.0594   20943477.3954   20943477.761   110058746.674 8
  85760062.30146        51.000          44.000
  24144187.022    24144186.9074   24144185.0524   24144185.462   126878569.018 6
  98866409.56442        41.000          21.000
  21922940.193    21922938.3414   21922936.8084                  115205836.204 7
  89770780.79145        49.000          36.000
  21454118.373    21454116.7874   21454114.9394                  112742188.470 8
  87851056.30045        50.000          39.000
  22756151.447    22756149.4734   22756146.9164                  119584421.566 7
  93182665.18544        46.000          31.000
  21784513.446    21784511.6504   21784508.3574                  114478407.039 7
  89203951.91145        49.000          37.000
  23702299.454    23702298.3754   23702300.7254   23702300.734   124556420.525 5
  97056943.28443        39.000          25.000
  20456238.790    20456237.3914   20456237.8884   20456238.245   107498281.083 8
  83764893.46247        53.000          46.000
 16  1  1  5 30  0.0000000  0 10G07G08G10G15G16G18G21G22G26G27
  25129345.355    25129345.6484   25129343.3384                  132055602.635 4
 102900469.1424         33.000
  21437480.278    21437479.1004   21437480.1734   21437481.001   112654726.516 8
  87782899.31745        50.000          39.000
  20576586.937    20576586.0064   20576586.5024   20576586.590   108130722.343 8
  84257705.94647        54.000          46.000
  24440488.002    24440488.3044   24440485.6324   24440486.075   128435646.301 5
 100079716.54541        38.000          19.000
  22978750.986    22978748.9364   22978748.0134                  120754156.716 6
  94094146.41443        44.000          28.000
  21887068.266    21887067.1784   21887065.3104                  115017357.381 7
  89623915.03245        49.000          36.000
  23563999.369    23563998.0464   23563996.2084                  123829691.714 6
  96490667.36142        42.000          23.000
  21029374.756    21029372.6854   21029369.9644                  110510128.525 8
  86111787.25746        50.000          41.000
  24996572.169    24996572.1274   24996573.3884   24996573.133   131357862.763 4
 102356766.66441        34.000           5.000
  20242187.138    20242185.9004   20242186.2954   20242186.745   106373432.781 9
  82888388.27647        55.000          47.000
 16  1  1  6  0  0.0000000  0 11G01G08G10G11G14G16G18G21G22G27G32
  24588312.149                                    24588313.014   129212447.782 5
                        38.000
  20805640.677    20805639.4814   20805640.3454   20805641.431   109334386.056 8
  85195621.04546        51.000          42.000
  20603331.297    20603330.3984   20603330.8784   20603331.129   108271264.574 8
  84367219.25747        53.000          46.000
  23459199.758    23459197.1394   23459196.3244                  123278928.690 6
  96061498.64942        42.000          22.000
  24123417.200    24123417.3164   24123415.6934                  126769413.396 5
  98781363.43841        38.000          19.000
  24208467.952    24208465.5814   24208463.8894                  127216346.204 6
  99129616.72242        42.000          20.000
  22588803.940    22588802.2224   22588800.6054                  118705001.048 7
  92497403.14944        46.000          30.000
  24451294.749    24451292.6914   24451292.9584                  128492446.093 5
 100123979.81441        36.000          13.000
  20584744.412    20584742.5794   20584739.0534                  108173580.373 7
  84291100.54946        48.000          44.000
  20360587.077    20360586.0104   20360586.5754   20360587.030   106995629.154 8
  83373216.46747        53.000          47.000
  24229410.906                                                   127326425.582 5
                        39.000
 16  1  1  6 30  0.0000000  0  9G01G08G10G11G14G18G22G27G32
  23491963.336    23491962.2764   23491964.2994   23491964.670   123451102.880 6
  96195665.17141        41.000          18.000
  20479723.447    20479722.2184   20479723.2004   20479724.201   107621677.843 8
  83861042.82646        53.000          44.000
  21001651.219    21001650.3504   21001651.3914   21001651.478   110364448.888 8
  85998271.27346        52.000          43.000
  22337649.672    22337648.5014   22337645.4104                  117385143.514 7
  91468938.82744        46.000          30.000
  23173849.149    23173847.5404   23173847.2924                  121779402.938 6
  94893044.75243        42.000          25.000
  23486468.878    23486467.2014   23486466.5114                  123422253.657 6
  96173182.85642        42.000          23.000
  20478799.430    20478797.3234   20478794.1684                  107616833.176 8
  83857271.07546        50.000          44.000
  20825582.553    20825581.2924   20825581.9224   20825582.403   109439191.679 8
  85277290.07246        52.000          44.000
  22917785.125    22917783.5234   22917783.4914                  120433789.164 6
  93844496.37042        43.000          24.000
 16  1  1  7  0  0.0000000  0 11G01G03G08G10G11G14G18G22G27G28G32
  22482674.801    22482674.1514   22482675.7314   22482675.391   118147254.120 7
  92062795.30144        45.000          31.000
  25024703.888                                                   131505713.214 5
                        36.000
  20516305.965    20516304.9094   20516306.3494   20516307.346   107813917.867 8
  84010839.28646        52.000          44.000
  21709143.829    21709142.7514   21709143.9104   21709143.911   114082340.537 7
  88895328.26345        49.000          39.000
  21373155.744    21373154.4984   21373152.3894                  112316691.122 7
  87519494.62145        48.000          37.000
  22458625.305    22458624.0244   22458623.2504                  118020874.660 7
  91964321.00944        46.000          30.000
  24505044.813    24505042.7674   24505042.5024                  128774894.449 5
 100344068.66841        39.000          14.000
  20701464.360    20701462.3464   20701459.3254                  108786941.720 8
  84769042.99246        51.000          43.000
  21614081.159    21614079.9424   21614080.9524   21614081.825   113582769.934 7
  88506050.00846        49.000          40.000
  24523379.753    24523377.6364   24523375.8344                  128871232.908 5
 100419141.47441        39.000          16.000
  21773694.625    21773693.2914   21773693.6224                  114421558.998 7
  89159641.84644        47.000          34.000
 16  1  1  7 30  0.0000000  0 10G01G03G08G10G11G14G22G27G28G32
  21600602.579    21600601.4274   21600603.2734   21600603.713   113511928.539 7
  88450852.30145        47.000          38.000
  23810831.117    23810831.7914   23810832.8374   23810833.518   125126768.507 6
  97501372.14542        41.000          24.000
  20933793.110    20933791.9524   20933793.5524   20933794.776   110007817.463 8
  85720369.27546        53.000          42.000
  22642962.847    22642962.1134   22642963.0134   22642963.461   118989580.969 7
  92719149.59844        46.000          33.000
  20641090.222    20641088.7934   20641086.9724                  108469657.011 8
  84521804.70346        51.000          41.000
  22073479.205    22073478.1184   22073476.9574                  115996917.527 7
  90387211.51744        48.000          34.000
  21210856.066    21210853.8874   21210851.2954                  111463806.054 8
  86854909.80146        51.000          41.000
  22667936.192    22667934.9304   22667937.6044   22667937.461   119120799.306 7
  92821393.21644        45.000          32.000
  24088127.631    24088125.5544   24088123.9264                  126583963.177 6
  98636852.33042        41.000          21.000
  20878212.966    20878211.0424   20878211.3014                  109715766.745 8
  85492790.48646        51.000          40.000
 16  1  1  8  0  0.0000000  0 11G01G03G08G10G11G14G19G22G27G28G32
  20892716.519    20892715.6064   20892717.6794   20892717.751   109791958.465 8
  85552173.49746        50.000          42.000
  22709639.592    22709637.7884   22709640.4924   22709640.871   119339966.820 7
  92992177.01644        45.000          31.000
  21703202.711    21703201.4044   21703204.5224   21703205.221   114051081.330 7
  88870961.55145        48.000          38.000
  23719226.266    23719225.4344   23719230.0474   23719229.564   124645377.162 5
  97126259.80542        38.000          24.000
  20216197.907    20216196.4444   20216194.9594                  106236828.097 8
  82781936.98046        50.000          42.000
  22073192.258    22073191.4164   22073190.9514                  115995408.758 7
  90386035.32644        47.000          34.000
  24116932.816                                                   126735343.614 6
                        41.000
  21946840.572    21946838.6054   21946836.4484                  115331424.708 7
  89868636.71345        48.000          36.000
  23904122.406    23904121.3734   23904125.8244   23904126.555   125616962.919 6
  97883329.44443        40.000          25.000
  24000687.893    24000686.3934   24000686.7364                  126124460.539 6
  98278796.53542        42.000          22.000
  20290370.129    20290368.3574   20290368.6764                  106626631.835 8
  83085672.01846        51.000          42.000
 16  1  1  8 30  0.0000000  0 11G01G03G08G10G11G14G17G19G22G28G32
  20410954.472    20410953.5574   20410955.6114   20410955.660   107260280.419 8
  83579436.94546        52.000          44.000
  21771582.306    21771581.0624   21771583.1724   21771583.666   114410447.056 7
  89150993.41745        49.000          38.000
  22752993.228    22752992.1674   22752996.1544   22752996.816   119567751.947 7
  93169662.11144        45.000          31.000
  24865536.597    24865535.7314   24865541.5584   24865538.984   130669254.479 5
 101820186.82541        37.000           9.000
  20156446.824    20156445.5334   20156444.2254                  105922831.342 7
  82537263.24446        49.000          42.000
  22458993.398    22458991.6654   22458991.4004                  118022802.501 7
  91965822.38144        47.000          31.000
  24417654.707    24417653.1174   24417652.4644   24417652.678   128315641.045 6
  99986214.09542        40.000          22.000
  23086451.296                                                   121320126.057 6
                        43.000
  22845352.571    22845350.7614   22845349.4504                  120053129.089 7
  93547884.94344        45.000          30.000
  24261293.444    24261291.8414   24261291.6884                  127493942.971 6
  99345923.96842        41.000          20.000
  20037728.153    20037726.2184   20037726.5344                  105298988.190 8
  82051144.32846        51.000          43.000
 16  1  1  9  0  0.0000000  0 12G01G03G08G11G14G17G19G22G23G28G31G32
  20205708.840    20205708.0234   20205710.1914   20205710.269   106181704.461 8
  82738987.24647        52.000          45.000
  21036640.842    21036640.0814   21036641.6464   21036642.466   110548305.819 8
  86141533.09046        51.000          42.000
  23984156.616    23984155.4744   23984159.4394   23984159.318   126037540.651 6
  98211052.10742        41.000          23.000
  20485533.001    20485531.6994   20485530.8824                  107652186.432 8
  83884811.53846        51.000          42.000
  23181285.117    23181283.6434   23181284.1304                  121818466.278 6
  94923480.89343        43.000          25.000
  23457237.973    23457236.6984   23457236.4244   23457236.770   123268611.653 6
  96053462.86043        44.000          29.000
  22343623.304    22343621.5034   22343620.0334                  117416535.680 7
  91493401.64644        47.000          34.000
  23848539.956    23848538.2434   23848537.0644                  125324902.262 6
  97655756.63242        41.000          23.000
  24671147.732                                                   129647779.284 6
                        42.000
  24820945.665    24820945.1064   24820946.5564                  130434928.841 5
 101637598.30041        38.000          12.000
  24035750.608                                    24035751.449   126308773.030 5
                        39.000
  20113675.362    20113673.7694   20113674.2984                  105698092.146 8
  82362133.79446        52.000          42.000
 16  1  1  9 30  0.0000000  0 10G01G03G11G14G17G19G22G23G31G32
  20315059.528    20315058.6044   20315061.0134   20315061.319   106756341.244 8
  83186755.10747        53.000          45.000
  20533133.871    20533133.1444   20533134.2624   20533135.075   107902357.030 8
  84079754.55447        53.000          45.000
  21182791.254    21182790.0794   21182789.5634                  111316294.102 7
  86739958.05545        49.000          39.000
  24156340.052    24156338.3804   24156339.8704                  126942409.752 5
  98916162.07941        37.000          16.000
  22772939.505    22772937.5884   22772937.3994   22772938.121   119672596.093 7
  93251372.28844        46.000          33.000
  21978590.917    21978588.9924   21978587.4344                  115498273.560 7
  89998651.05645        48.000          37.000
  24909356.558    24909354.7594   24909358.9104                  130899508.243 5
 101999647.31241        35.000          13.000
  23464538.684    23464537.1554   23464536.9394                  123307021.891 6
  96083369.06243        44.000          27.000
  23285288.669    23285286.7554   23285287.7734   23285288.657   122365076.809 6
  95349365.35743        43.000          28.000
  20483548.429    20483546.6144   20483547.0944                  107641783.620 8
  83876697.75446        51.000          42.000
 16  1  1 10  0  0.0000000  0  8G01G03G11G17G19G23G31G32
  20753079.370    20753078.4154   20753080.7964   20753080.713   109058145.093 8
  84980367.33646        53.000          43.000
  20277903.787    20277902.8544   20277904.6364   20277905.489   106561114.634 8
  83034630.56147        52.000          45.000
  22186240.253    22186239.3474   22186239.1314                  116589443.345 7
  90848902.98044        46.000          33.000
  22446758.952    22446758.1794   22446757.5404   22446757.668   117958504.949 7
  91915716.24345        48.000          35.000
  22038972.867    22038971.0614   22038969.8804                  115815580.068 7
  90245901.90145        49.000          37.000
  22383821.956    22383820.5104   22383819.2264                  117627828.663 8
  91658026.76845        50.000          35.000
  22857361.207    22857360.4764   22857359.7754   22857360.475   120116310.824 7
  93597082.33944        46.000          30.000
  21096743.309    21096741.5364   21096742.5244                  110864140.055 8
  86387623.72846        50.000          40.000
 16  1  1 10 30  0.0000000  0 10G01G03G06G09G11G17G19G23G31G32
  21502375.513    21502374.3684   21502377.4224   21502377.579   112995716.100 7
  88048602.83245        49.000          39.000
  20277511.417    20277510.5804   20277512.4064   20277513.047   106559052.044 8
  83033023.08847        52.000          45.000
  24035572.461                                                   126307781.549 5
                        39.000
  23889199.669    23889197.9474   23889202.0004                  125538610.106 6
  97822297.25542        40.000          22.000
  23406146.016    23406144.6094   23406145.5344                  123000074.961 6
  95844196.39743        43.000          25.000
  22519608.530    22519607.4194   22519606.9974   22519608.001   118341327.377 7
  92214018.34945        48.000          35.000
  22512826.764    22512824.4354   22512823.9294                  118305690.030 7
  92186245.79345        47.000          35.000
  21502684.718    21502683.4904   21502681.5334                  112997432.501 8
  88049928.53846        52.000          40.000
  22825437.556    22825436.4964   22825436.4284   22825437.202   119948553.672 7
  93466362.96944        45.000          30.000
  21899108.209    21899106.7254   21899108.1884                  115080591.787 7
  89673168.94645        49.000          36.000
 16  1  1 11  0  0.0000000  0 10G01G03G06G09G11G17G19G23G31G32
  22514386.088    22514385.0214   22514389.0834   22514388.933   118313859.713 7
  92192608.46844        46.000          32.000
  20529651.673    20529651.0294   20529652.7824   20529653.484   107884057.023 8
  84065494.12446        53.000          44.000
  22923362.842                                    22923364.981   120463088.716 6
                        43.000
  22717228.784    22717228.2014   22717230.8684   22717231.338   119379896.686 7
  93023307.45944        45.000          32.000
  24741290.882    24741290.0174   24741293.6004                  130016284.819 5
 101311367.00541        38.000          14.000
  22976275.941    22976274.2534   22976274.0424   22976274.956   120741122.548 7
  94083987.20044        46.000          32.000
  23329983.898    23329981.8154   23329981.9314                  122599873.426 7
  95532360.89144        45.000          31.000
  20878265.501    20878264.1084   20878261.7434                  109716093.188 8
  85493042.24346        53.000          43.000
  23204828.153    23204826.8994   23204827.1034   23204827.125   121942265.177 6
  95019904.31044        43.000          30.000
  22841202.283    22841199.7244   22841201.6844                  120031317.034 7
  93530874.80244        46.000          30.000
 16  1  1 11 30  0.0000000  0  9G01G03G06G09G17G19G23G31G32
  23716656.205    23716655.7364   23716660.1384   23716659.792   124631817.426 6
  97115688.66143        40.000          25.000
  21023998.394    21023997.5424   21023999.7214   21024000.487   110481863.020 8
  86089757.56146        50.000          42.000
  22010521.835    22010520.8684   22010523.5154   22010524.707   115666081.775 7
  90129411.70145        47.000          36.000
  21718496.258    21718494.7294   21718496.9744   21718497.577   114131528.529 7
  88933672.84246        49.000          40.000
  23746741.567    23746740.6554   23746740.6154   23746740.844   124789937.908 6
  97238905.43843        44.000          26.000
  24380432.134    24380430.6554   24380430.8534                  128120000.591 6
  99833754.93142        40.000          24.000
  20543888.186    20543886.6254   20543883.8924                  107958927.137 8
  84123822.35347        53.000          45.000
  23950973.086    23950971.7644   23950971.5454   23950972.702   125863282.156 6
  98075242.32443        41.000          25.000
  23881297.488    23881295.6304   23881297.9414                  125497036.344 6
  97789872.19542        42.000          23.000
 16  1  1 12  0  0.0000000  0  9G01G02G03G06G09G17G19G23G32
  25023211.807                                    25023215.705   131497770.402 4
                        32.000
  24363230.413    24363226.7124   24363226.3684                  128029639.938 6
  99763354.7474         40.000
  21742143.499    21742142.6574   21742144.7914   21742145.627   114255736.247 7
  89030437.37645        49.000          38.000
  21396632.274    21396631.4234   21396633.6834   21396634.367   112440071.514 8
  87615638.12246        51.000          41.000
  20947515.328    20947514.2234   20947515.9244   20947516.233   110080006.000 8
  85776643.94746        51.000          44.000
  24722798.742    24722798.0394   24722799.7014   24722798.668   129919136.574 6
 101235679.58941        41.000          18.000
  25538364.538    25538362.9644   25538365.4224                  134204949.061 5
 104575266.49841        37.000          14.000
  20505810.930    20505809.5864   20505806.6224                  107758833.479 8
  83967905.71647        54.000          46.000
  24984415.431    24984412.3214   24984418.4314                  131293945.108 5
 102306940.20941        38.000          16.000
 16  1  1 12 30  0.0000000  0  8G02G03G06G07G09G16G23G26
  23378615.816    23378614.1324   23378613.0274                  122855463.374 6
  95731530.32043        44.000          28.000
  22656941.153    22656940.7314   22656943.8154   22656944.442   119063029.472 6
  92776378.96144        44.000          31.000
  21162521.079    21162520.3844   21162522.3604   21162523.102   111209811.663 8
  86656994.64246        52.000          42.000
  23448964.566    23448963.5424   23448964.6214   23448964.918   123225167.314 6
  96019617.91343        44.000          27.000
  20440845.474    20440844.4824   20440845.7574   20440846.136   107417441.693 8
  83701919.57647        53.000          46.000
  24487216.451                                                   128681189.244 5
                        38.000
  20745926.909    20745925.4064   20745922.2944                  109020652.363 8
  84951141.68946        52.000          43.000
  24440663.048    24440661.4694   24440665.0844   24440665.340   128436562.908 6
 100080431.57942        40.000          20.000
 16  1  1 13  0  0.0000000  0  8G02G03G06G07G09G16G23G26
  22641786.710    22641784.8194   22641782.4494                  118983405.335 7
  92714343.86844        45.000          32.000
  23731966.367    23731966.2834   23731969.0154   23731968.699   124712315.885 6
  97178418.15642        40.000          23.000
  21346244.008    21346243.0544   21346245.3804   21346246.355   112175280.743 8
  87409307.94146        50.000          41.000
  22308311.566    22308310.5534   22308310.1134   22308310.181   117231019.378 7
  91348858.92145        48.000          35.000
  20214496.981    20214495.7694   20214496.7634   20214497.285   106227973.694 8
  82775062.13247        52.000          47.000
  23813448.410    23813446.5384   23813445.5274                  125140530.483 5
  97512092.90841        38.000          15.000
  21229510.069    21229508.7224   21229505.9184                  111561900.820 8
  86931335.58246        51.000          40.000
  24350557.658    24350555.9074   24350560.0894   24350560.193   127963063.923 5
  99711472.81541        37.000          16.000
 16  1  1 13 30  0.0000000  0 10G02G03G05G06G07G09G16G23G26G30
  22236906.717    22236905.6754   22236902.9924                  116855752.209 7
  91056432.87844        48.000          34.000
  24921733.092    24921731.6784   24921736.6804   24921738.016   130964560.607 5
 102050293.01341        36.000          14.000
  24318866.118    24318864.3024   24318864.2004   24318865.066   127796505.082 5
  99581697.19242        39.000          20.000
  21928043.623    21928042.8124   21928044.7194   21928045.280   115232654.139 7
  89791676.09645        49.000          37.000
  21372171.604    21372170.7014   21372169.8894   21372170.293   112311580.330 8
  87515532.23746        52.000          41.000
  20265090.409    20265089.3354   20265090.4094   20265090.882   106493847.016 8
  82982236.51347        53.000          46.000
  23498783.457    23498781.3374   23498781.2924                  123486958.029 6
  96223596.48442        42.000          22.000
  21914638.403    21914636.7644   21914633.9074                  115162272.288 8
  89736819.37545        50.000          36.000
  24646539.139    24646538.1954   24646541.2164   24646542.746   129518464.331 5
 100923474.11641        39.000          12.000
  23508992.628                                                   123540625.703 6
                        42.000
 16  1  1 14  0  0.0000000  0  8G02G05G06G07G09G16G23G30
  22213660.808    22213659.4704   22213657.0174                  116733593.692 7
  90961244.65844        48.000          34.000
  23182358.721    23182356.8744   23182357.2574   23182357.531   121824132.589 7
  94927903.16944        46.000          30.000
  22833410.238    22833409.7064   22833412.1674   22833412.871   119990379.131 6
  93498992.24144        44.000          30.000
  20719056.555    20719055.3944   20719054.1494   20719054.564   108879443.199 8
  84841141.06446        52.000          43.000
  20574392.638    20574391.7114   20574392.8624   20574393.265   108119242.044 8
  84248778.18247        52.000          45.000
  23604963.779    23604961.5474   23604961.5024                  124044945.208 6
  96658392.82242        40.000          21.000
  22759690.326    22759688.4914   22759686.2794                  119603047.878 7
  93197163.15844        47.000          30.000
  22329244.922    22329243.4994   22329246.1484   22329246.478   117341023.624 7
  91434533.49945        48.000          35.000
 16  1  1 14 30  0.0000000  0  9G02G05G06G07G09G13G16G23G30
  22570291.091    22570289.7694   22570287.0344                  118607698.759 7
  92421586.16644        45.000          31.000
  22192261.520    22192260.4704   22192259.5544   22192260.862   116621143.692 7
  90873627.63945        49.000          36.000
  23951626.100    23951624.6544   23951628.4994   23951629.011   125866628.278 6
  98077884.59042        40.000          23.000
  20398540.682    20398539.7104   20398538.3584   20398538.778   107195124.854 8
  83528686.06047        52.000          45.000
  21115243.872    21115242.6044   21115244.2194   21115244.431   110961434.609 8
  86463473.80546        51.000          42.000
  25248207.687    25248204.7974   25248209.3064                  132680237.530 5
 103387195.28941        36.000           4.000
  24129237.439    24129236.2474   24129234.4694                  126800028.909 6
  98805212.03541        40.000          17.000
  23727122.999    23727121.9514   23727119.5004                  124686938.467 6
  97158635.26242        43.000          23.000
  21354261.188    21354259.9594   21354262.0254   21354262.616   112217461.178 8
  87442149.65146        52.000          41.000
 16  1  1 15  0  0.0000000  0  8G02G05G06G07G09G13G23G30
  23250630.848    23250629.0494   23250626.8714                  122182899.994 6
  95207455.63343        43.000          26.000
  21439975.866    21439975.1184   21439973.9474   21439974.692   112667861.527 8
  87793148.86146        52.000          40.000
  25158646.183                                    25158653.058   132209540.838 5
                        35.000
  20422534.520    20422533.3394   20422531.8914   20422532.417   107321213.417 8
  83626937.07446        52.000          44.000
  21856490.894    21856489.4474   21856490.9234   21856491.343   114856711.296 7
  89498753.86645        48.000          37.000
  24117984.762    24117983.0754   24117982.1764                  126740892.238 6
  98759125.35641        41.000          19.000
  24783716.924    24783715.3174   24783712.6524                  130239375.223 5
 101485209.02741        36.000          10.000
  20656641.257    20656639.9784   20656641.4254   20656641.930   108551446.423 8
  84585515.68547        54.000          45.000
 16  1  1 15 30  0.0000000  0  8G02G05G07G09G13G20G28G30
  24156813.879    24156812.6804   24156809.9974                  126944907.220 6
  98918107.61441        41.000          17.000
  21012359.089    21012358.2814   21012357.1914   21012357.983   110420721.768 8
  86042131.30146        52.000          43.000
  20765887.899    20765886.6494   20765885.0854   20765885.844   109125549.335 8
  85032913.55346        51.000          42.000
  22765511.367    22765510.7814   22765511.9834   22765512.019   119633648.013 7
  93221041.99944        45.000          31.000
  23040353.301    23040351.5704   23040351.3894                  121077911.755 7
  94346415.28143        46.000          26.000
  23948076.818    23948074.1634   23948073.7964                  125847992.862 5
  98063373.32041        39.000          18.000
  23501565.328    23501564.3354   23501563.9704                  123501572.780 6
  96234997.36142        42.000          20.000
  20282033.558    20282032.0984   20282033.5994   20282034.307   106582872.422 8
  83051562.59547        54.000          45.000
 16  1  1 16  0  0.0000000  0  9G02G05G07G08G09G13G20G28G30
  25170235.840    25170234.1904   25170236.3384                  132270452.665 5
 103067904.03041        35.000           3.000
  20970611.998    20970611.1164   20970609.9674   20970610.762   110201340.576 8
  85871185.32746        53.000          43.000
  21376732.845    21376731.8114   21376730.3754   21376730.031   112335565.013 7
  87534225.12245        49.000          39.000
  24833946.138                                    24833946.447   130503272.740 5
                        37.000
  23808382.883    23808381.5714   23808383.2494   23808383.352   125113969.997 6
  97491422.30143        41.000          25.000
  22055725.434    22055724.4404   22055722.6044                  115903666.111 7
  90314537.34744        49.000          34.000
  22948061.889    22948059.6874   22948059.0434                  120592890.128 6
  93968489.97343        43.000          25.000
  22444845.536    22444843.8184   22444843.6724                  117948488.490 7
  91907921.98244        47.000          30.000
  20241985.041    20241983.8134   20241984.9364   20241985.725   106372419.684 8
  82887574.29447        54.000          46.000
 16  1  1 16 30  0.0000000  0  8G05G07G08G13G15G20G28G30
  21330372.681    21330371.8944   21330370.2944   21330371.038   112091897.879 8
  87344347.27346        51.000          41.000
  22191437.539    22191436.3614   22191434.6214   22191435.138   116616869.810 7
  90870307.33944        47.000          34.000
  24471199.556    24471198.6194   24471199.7604   24471200.741   128597035.466 5
 100205480.50541        38.000          18.000
  21215291.850    21215290.7224   21215289.2984                  111487163.641 8
  86873108.57345        51.000          39.000
  24009006.883    24009005.7854   24009006.0184   24009005.806   126168204.605 6
  98312869.95641        42.000          19.000
  22232124.914    22232123.4274   22232121.8474                  116830624.061 7
  91036855.98844        47.000          31.000
  21611687.803    21611685.9754   21611684.5554                  113570221.389 7
  88496287.73445        49.000          37.000
  20515012.416    20515010.9694   20515011.9994   20515012.599   107807190.425 8
  84005578.27747        52.000          45.000
 16  1  1 17  0  0.0000000  0  8G05G07G08G13G15G20G28G30
  22053674.669    22053673.2794   22053671.7804   22053672.471   115892873.585 7
  90306146.60845        48.000          38.000
  23147723.496    23147723.1024   23147720.2104   23147720.977   121642188.052 6
  94786139.85343        42.000          27.000
  24473005.601    24473004.7184   24473006.8504   24473007.548   128606529.070 5
 100212878.58141        36.000          17.000
  20580247.671    20580246.7904   20580244.7634                  108149988.627 8
  84272713.28846        52.000          43.000
  22913522.421    22913521.0424   22913519.7614   22913520.263   120411406.993 7
  93827056.67044        45.000          31.000
  21884491.326    21884489.2014   21884487.6064                  115003799.143 7
  89613356.94345        49.000          35.000
  21086410.551    21086409.1644   21086407.3364                  110809878.276 8
  86345372.28246        51.000          41.000
  21055982.510    21055981.0224   21055981.8504   21055982.542   110650009.185 8
  86220762.17346        51.000          42.000
 16  1  1 17 30  0.0000000  0  9G05G07G13G15G19G20G24G28G30
  23057339.233    23057337.5214   23057337.5064   23057337.161   121167163.983 7
  94415982.64744        46.000          31.000
  24192397.372    24192396.4774   24192392.7854   24192394.590   127131976.361 5
  99063896.15841        38.000          14.000
  20215469.455    20215468.3074   20215466.1144                  106233065.760 8
  82779007.43446        51.000          43.000
  21959308.470    21959306.9794   21959305.3854   21959306.131   115396984.050 8
  89919715.30745        50.000          37.000
  24691218.773                                                   129753230.846 5
                        38.000
  21947448.284    21947446.3164   21947444.9814                  115334641.234 7
  89871156.26244        49.000          34.000
  24883692.789    24883691.2054   24883694.0404   24883694.528   130764694.425 5
 101894571.73541        36.000          13.000
  20915871.037    20915869.5064   20915867.8154                  109913689.030 8
  85647043.48946        51.000          42.000
  21809257.315    21809256.0024   21809256.8574   21809257.352   114608495.857 7
  89305297.35345        49.000          38.000
 16  1  1 18  0  0.0000000  0 10G05G13G15G17G18G19G20G24G28G30
  24231907.295    24231906.8134   24231905.6634   24231906.525   127339557.424 6
  99225638.58542        41.000          24.000
  20176941.563    20176940.2434   20176938.0604                  106030599.464 8
  82621241.49246        51.000          43.000
  21226280.004    21226279.0774   21226277.6034   21226277.992   111544897.930 8
  86918090.14546        51.000          42.000
  23950999.386    23950996.7934   23950998.0364   23950998.197   125863361.453 6
  98075342.44943        42.000          26.000
  24354041.001                                                   127981353.258 6
                        41.000
  23580205.655                                                   123914829.887 6
                        42.000
  22405977.010    22405975.2924   22405974.8204                  117744226.979 7
  91748755.26444        46.000          31.000
  23774173.807    23774172.4604   23774174.7334   23774174.912   124934154.312 5
  97351297.71242        39.000          22.000
  21100622.125    21100620.4754   21100618.2684                  110884562.113 8
  86403568.24446        52.000          41.000
  22719980.432    22719979.4544   22719980.6684   22719980.469   119394378.514 7
  93034556.32944        46.000          31.000
 16  1  1 18 30  0.0000000  0 10G05G13G15G17G18G19G20G24G28G30
  25461112.631    25461111.8154   25461111.3414   25461111.267   133799065.907 4
 104259019.87241        34.000           4.000
  20495922.819    20495921.5294   20495919.6724                  107706857.613 8
  83927416.53146        52.000          43.000
  20793049.742    20793048.5664   20793046.8874   20793047.249   109268255.668 8
  85144083.30646        51.000          44.000
  23047113.405    23047112.0664   23047111.0714   23047110.853   121113414.843 7
  94374086.82544        45.000          31.000
  23828602.224                                                   125220155.115 6
                        42.000
  22686725.841                                                   119219565.869 7
                        45.000
  23189732.532    23189730.4124   23189728.6114                  121862883.779 6
  94958097.44642        43.000          24.000
  22745856.294    22745855.3974   22745856.4774   22745856.461   119530308.853 6
  93140510.44644        44.000          31.000
  21598781.581    21598779.9344   21598777.8134                  113502407.837 8
  88443448.17445        50.000          39.000
  23740416.035    23740415.3804   23740416.1864   23740416.915   124756800.258 6
  97213065.78442        41.000          23.000
 16  1  1 19  0  0.0000000  0 10G12G13G15G17G18G19G20G24G28G30
  23860709.132                                    23860706.014   125388884.969 6
                        42.000
  21166613.034    21166611.8484   21166609.9114                  111231357.000 8
  86673779.28945        52.000          39.000
  20719371.584    20719370.5234   20719368.9464   20719369.203   108881074.309 8
  84842383.41247        52.000          45.000
  22401276.267    22401275.2434   22401273.0384   22401273.816   117719522.401 7
  91729496.22145        48.000          35.000
  23634923.895    23634922.6034   23634920.3234                  124202369.108 6
  96781058.74842        44.000          24.000
  22138644.227    22138642.7504   22138639.7974                  116339383.605 7
  90654048.50345        47.000          35.000
  24190785.556    24190785.1294   24190782.8564                  127123451.843 5
  99057240.35941        39.000          17.000
  21835760.037    21835758.7614   21835759.0904   21835759.716   114747721.507 7
  89413819.52345        48.000          37.000
  22341017.874    22341016.2764   22341014.0444                  117402887.212 7
  91482782.80244        49.000          33.000
  24831358.099    24831357.1234   24831357.8034   24831356.563   130489732.237 5
 101680285.06341        36.000          12.000
 16  1  1 19 30  0.0000000  0 10G10G12G13G15G17G18G19G20G24G28
  24097706.219                                                   126634305.501 6
                        40.000
  22655365.751    22655364.0054   22655362.1294   22655363.114   119054769.173 7
  92769938.47044        45.000          31.000
  22143687.439    22143686.5994   22143684.5374                  116365917.206 7
  90674734.60944        47.000          32.000
  21027970.906    21027969.9094   21027968.4284   21027969.027   110502775.311 8
  86106046.27646        50.000          43.000
  22099993.721    22099992.7894   22099990.5534   22099990.825   116136270.910 7
  90495794.11845        49.000          38.000
  23785944.486    23785943.9874   23785941.3074                  124995991.917 6
  97399466.05542        41.000          20.000
  22023619.338    22023617.5414   22023614.5454                  115734925.908 7
  90183042.86445        49.000          36.000
  25286625.467    25286623.8824   25286624.3494                  132882124.390 4
 103544516.45341        34.000           6.000
  21086035.715    21086034.7964   21086035.2584   21086035.903   110807896.231 7
  86343825.98946        49.000          42.000
  23249016.421    23249014.5554   23249013.2974                  122174458.836 6
  95200890.57443        43.000          25.000
 16  1  1 20  0  0.0000000  0 10G10G12G13G15G17G18G19G22G24G28
  24126019.001    24126018.3234   24126018.9974   24126019.402   126783087.668 6
  98792008.91142        42.000          23.000
  21628249.881    21628248.7984   21628247.1224   21628247.387   113657244.528 8
  88564075.87445        50.000          38.000
  23350342.481    23350341.5884   23350340.2114                  122706927.501 6
  95615780.70443        43.000          25.000
  21694697.215    21694695.8414   21694694.3084   21694695.265   114006440.099 8
  88836174.10745        50.000          39.000
  22185198.467    22185197.1504   22185195.5014   22185195.864   116584025.361 7
  90844693.87345        49.000          37.000
  24246534.339    24246533.2174   24246531.3984                  127416404.617 5
  99285501.47941        39.000          17.000
  22364838.807    22364836.6744   22364833.7504                  117528044.649 7
  91580278.40944        47.000          34.000
  24894706.526                                                   130822574.471 5
                        35.000
  20543667.658    20543666.8744   20543667.2994   20543667.990   107957733.659 8
  84122920.12047        53.000          45.000
  24250167.116    24250164.3824   24250163.7174                  127435531.402 5
  99300427.49441        39.000          17.000
 16  1  1 20 30  0.0000000  0 10G10G12G13G15G17G18G19G22G24G25
  24523690.182    24523689.1364   24523689.9354   24523689.815   128872865.298 6
 100420406.91142        40.000          20.000
  20833261.618    20833260.3664   20833258.5854   20833259.156   109479555.467 8
  85308734.38746        51.000          41.000
  24691766.954    24691764.9854   24691762.2374                  129756148.501 5
 101108679.22041        35.000           7.000
  22652424.144    22652423.2874   22652422.4564   22652422.508   119039330.831 7
  92757906.36944        46.000          33.000
  22645242.734    22645241.5654   22645238.9524   22645239.313   119001573.427 7
  92728497.62845        48.000          35.000
  24940010.392    24940009.8054   24940008.5964                  131060637.531 5
 102125161.49841        37.000          10.000
  23116229.163    23116226.5904   23116224.0204                  121476627.564 6
  94657096.32243        44.000          29.000
  24887680.843                                                   130785652.843 5
                        38.000
  20256328.344    20256327.5884   20256328.0194   20256328.532   106447755.778 8
  82946313.92847        53.000          46.000
  24075256.952    24075255.8394   24075256.2824                  126516336.271 6
  98584152.18641        40.000          18.000
 16  1  1 21  0  0.0000000  0 10G06G10G12G14G15G17G19G22G24G25
  23976886.743                                    23976888.446   125999402.164 6
                        40.000
  25218937.347    25218936.5414   25218937.1304   25218937.689   132526410.780 5
 103267324.97141        37.000          13.000
  20306025.907    20306024.9084   20306022.5084   20306023.016   106708914.485 8
  83149793.63646        51.000          44.000
  23397047.721    23397046.9584   23397044.8434                  122952317.937 6
  95806999.10442        41.000          24.000
  23805630.289    23805630.4604   23805628.0084   23805629.215   125099467.831 6
  97480090.15343        42.000          26.000
  23421449.299    23421447.3694   23421444.2894   23421445.843   123080567.457 7
  95906934.55344        45.000          30.000
  24180828.626    24180825.4454   24180823.1364                  127071134.179 5
  99016452.10342        39.000          21.000
  25207870.226    25207867.1644   25207866.0494                  132468260.807 5
 103222014.69741        35.000           9.000
  20263989.085    20263988.2164   20263988.8194   20263989.455   106488012.761 8
  82977682.91247        53.000          46.000
  22974953.354    22974953.1744   22974954.9594   22974955.207   120734212.351 6
  94078602.23943        44.000          28.000
 16  1  1 21 30  0.0000000  0  8G02G06G12G14G15G17G24G25
  24021907.554    24021906.3784   24021901.9724                  126235979.624 6
  98365696.63642        41.000          23.000
  23289367.434    23289366.9594   23289368.5674   23289368.738   122386463.085 6
  95366068.57843        42.000          25.000
  20061753.048    20061752.2544   20061749.9314   20061750.742   105425253.798 8
  82149538.60647        53.000          46.000
  22699228.170    22699226.4194   22699225.0624                  119285247.914 7
  92949541.92343        46.000          28.000
  25047539.282    25047537.6964   25047536.3304   25047537.156   131625732.296 5
 102565490.28541        38.000          13.000
  24426541.735    24426541.5624   24426539.0594   24426540.308   128362366.222 6
 100022621.87342        42.000          21.000
  20588250.873    20588250.1964   20588250.8564   20588251.423   108192020.616 8
  84305481.07947        52.000          45.000
  22012916.046    22012914.5094   22012915.7344   22012916.587   115678671.526 7
  90139220.66945        48.000          35.000
 16  1  1 22  0  0.0000000  0  7G02G06G12G14G24G25G29
  23169246.987    23169245.6734   23169241.7814                  121755224.932 7
  94874201.03243        45.000          29.000
  22937456.075    22937456.1194   22937456.1624   22937457.535   120537160.901 6
  93925054.73943        44.000          29.000
  20096839.502    20096838.3584   20096835.8504   20096836.450   105609632.021 8
  82293210.01147        53.000          47.000
  22357094.988    22357093.3544   22357091.4464                  117487326.082 7
  91548563.82844        47.000          31.000
  21223602.511    21223601.3224   21223601.9084   21223602.390   111530808.807 8
  86907133.52946        50.000          41.000
  21225317.500    21225315.8494   21225317.0334   21225317.723   111539815.546 8
  86914138.56246        51.000          40.000
  23975032.894    23975030.3834   23975028.4904   23975030.223   125989650.305 6
  98173746.67742        43.000          21.000
 16  1  1 22 30  0.0000000  0  8G02G06G12G14G24G25G29G31
  22541597.902    22541595.5964   22541593.0804                  118456913.392 7
  92304089.16444        46.000          33.000
  22983341.584    22983340.3644   22983341.3234   22983342.409   120778289.047 6
  94112947.18543        43.000          28.000
  20393594.598    20393593.6024   20393591.0184   20393591.706   107169091.190 8
  83508372.95046        53.000          44.000
  22413106.861    22413104.9264   22413103.7484                  117781667.735 7
  91777920.75444        45.000          31.000
  22134669.017    22134667.5684   22134668.6614   22134669.452   116318492.596 7
  90637795.31845        47.000          35.000
  20644276.320    20644274.9594   20644275.6754   20644276.559   108486423.985 8
  84534872.47746        52.000          43.000
  22737171.131    22737169.8554   22737168.7054   22737169.233   119484655.486 7
  93104920.61444        46.000          31.000
  24173743.526    24173742.4774   24173739.7694   24173739.826   127033883.309 6
  98987445.34442        40.000          21.000
 16  1  1 23  0  0.0000000  0  8G02G06G12G14G24G25G29G31
  22222093.484    22222091.8014   22222088.6134                  116777908.020 7
  90995773.75745        48.000          35.000
  23431328.539    23431328.5304   23431328.1264   23431330.073   123132480.025 6
  95947381.80243        41.000          26.000
  20925991.511    20925990.4774   20925988.2504   20925988.617   109966854.571 8
  85688448.16846        53.000          42.000
  22854153.850    22854152.3964   22854150.4914                  120099382.250 6
  93583931.10243        44.000          26.000
  23260409.901    23260409.8284   23260410.5864   23260410.166   122234296.707 6
  95247511.90443        43.000          27.000
  20298149.343    20298147.7174   20298148.7534   20298149.472   106667514.087 8
  83117540.09746        52.000          44.000
  21668149.841    21668148.8424   21668147.1864   21668147.701   113866913.873 7
  88727460.42645        48.000          38.000
  23090647.903    23090647.3264   23090644.4594   23090644.793   121342178.975 7
  94552351.07944        45.000          30.000
 16  1  1 23 30  0.0000000  0  8G02G06G12G14G24G25G29G31
  22256228.983    22256227.4134   22256223.3744                  116957289.269 7
  91135551.55345        48.000          36.000
  24229091.132    24229090.0694   24229091.1974   24229091.739   127324747.011 5
  99214083.40041        39.000          19.000
  21664112.383    21664111.1664   21664108.9174   21664109.639   113845704.467 8
  88710928.30045        50.000          38.000
  23612353.596    23612352.7854   23612350.9184                  124083746.151 6
  96688629.19742        40.000          21.000
  24522710.906    24522709.2964   24522712.7394   24522714.201   128867734.090 5
 100416423.14241        35.000          14.000
  20210292.968    20210291.3284   20210292.3274   20210293.054   106205825.792 8
