     2.00           OBSERVATION DATA    G (GPS)             RINEX VERSION / TYPE
teqc  1999Jul19     CNRS_UMRGA          20020111 11:04:23UTCPGM / RUN BY / DATE
Solaris 2.3|S-Sparc|cc SC3.0|=+|*Sparc                      COMMENT
BIT 2 OF LLI FLAGS DATA COLLECTED UNDER A/S CONDITION       COMMENT
SJDV                                                        MARKER NAME
10090M001                                                   MARKER NUMBER
___                 REGAL                                   OBSERVER / AGENCY
845                 ASHTECH Z-XII3      CD00                REC # / TYPE / VERS
317                 ASH700936A_M    NONE                    ANT # / TYPE
  4433469.9683   362672.6919  4556211.6229                  APPROX POSITION XYZ
        0.0000        0.0000        0.0000                  ANTENNA: DELTA H/E/N
     1     1                                                WAVELENGTH FACT L1/2
     5    L1    L2    C1    P1    P2                        # / TYPES OF OBSERV
    30.0000                                                 INTERVAL
Forced Modulo Decimation to 30 seconds                      COMMENT
 SNR is mapped to RINEX snr flag value [1-9]                COMMENT
  L1: 1 -> 1;  90 -> 5; 210 -> 9                            COMMENT
  L2: 1 -> 1; 150 -> 5; 250 -> 9                            COMMENT
  2002     1    10     0     0   30.0000000     GPS         TIME OF FIRST OBS
                                                            END OF HEADER
 02  1 10  0  0 30.0000000  0  7G20G13G11G 1G 4G25G 7
 -27413312.03249 -20904548.99148  20640157.479    20640157.077    20640159.876
 -18699774.20449 -14538445.58247  21951675.756    21951675.901    21951678.984
 -12431665.95749  -9648174.39246  22796475.491    22796475.069    22796478.618
 -25427470.32149 -19721530.09048  20424600.119    20424599.794    20424603.664
 -16385593.22649 -12750696.91946  22522326.741    22522326.858    22522330.151
 -13862050.65349 -10787781.93846  23844689.647    23844689.565    23844692.901
 -17607129.24449 -12904512.99046  22255797.683    22255797.572    22255801.537
 02  1 10  0  1  0.0000000  0  7G20G13G11G 1G 4G25G 7
 -27378263.29749 -20877238.29848  20646827.033    20646826.439    20646829.566
 -18788169.98049 -14607325.38947  21934854.627    21934854.396    21934857.487
 -12334895.64649  -9572768.98046  22814890.250    22814890.240    22814893.471
 -25453364.58749 -19741707.42648  20419672.561    20419672.165    20419676.065
 -16470801.92649 -12817093.29946  22506112.115    22506112.343    22506115.419
 -13826023.62049 -10759708.91646  23851545.349    23851545.099    23851548.720
 -17571854.03349 -12877025.82446  22262510.336    22262510.045    22262514.145
 02  1 10  0  1 30.0000000  0  7G20G13G11G 1G 4G25G 7
 -27342913.74849 -20849693.19448  20653553.803    20653553.303    20653556.442
 -18876218.58449 -14675934.67147  21918099.580    21918099.835    21918102.617
 -12237884.95149  -9497176.23246  22833350.696    22833350.800    22833353.000
 -25478740.89949 -19761481.16548  20414843.619    20414843.258    20414847.136
 -16555774.57349 -12883305.74546  22489942.367    22489942.857    22489945.969
 -13789501.36749 -10731250.00046  23858495.410    23858496.027    23858498.682
 -17536074.73849 -12849145.87646  22269318.940    22269318.781    22269323.109
 02  1 10  0  2  0.0000000  0  7G20G13G11G 1G 4G25G 7
 -27307262.00249 -20821912.62148  20660338.185    20660337.726    20660340.697
 -18963916.17149 -14744270.43147  21901411.279    21901411.229    21901413.995
 -12140633.62249  -9421395.99046  22851857.004    22851856.359    22851859.573
 -25503597.15549 -19780849.67048  20410113.622    20410113.223    20410116.925
 -16640506.87249 -12949330.91046  22473818.483    22473818.999    22473821.482
 -13752483.00949 -10702404.51846  23865539.796    23865540.070    23865541.988
 -17499790.98349 -12820872.83546  22276223.534    22276223.331    22276227.741
 02  1 10  0  2 30.0000000  0  7G20G13G11G 1G 4G25G 7
 -27271310.32549 -20793898.33148  20667179.555    20667179.020    20667182.069
 -19051263.00949 -14812332.87447  21884789.623    21884789.805    21884792.592
 -12043145.19649  -9345430.99646  22870408.379    22870407.726    22870411.448
 -25527935.20249 -19799814.37148  20405482.192    20405481.789    20405485.710
 -16724998.62149 -13015168.63046  22457740.224    22457740.470    22457743.403
 -13714971.39849 -10673174.68145  23872677.955    23872678.309    23872681.729
 -17463006.27049 -12792209.44546  22283223.439    22283222.856    22283227.256
 02  1 10  0  3  0.0000000  0  7G20G13G11G 1G 4G25G 7
 -27235059.46749 -20765650.92548  20674077.910    20674077.394    20674080.481
 -19138257.52149 -14880120.78647  21868235.073    21868234.996    21868237.973
 -11945421.66749  -9269282.81446  22889004.599    22889005.201    22889007.903
 -25551755.21849 -19818375.41648  20400949.405    20400948.957    20400952.766
 -16809247.76749 -13080817.32146  22441708.197    22441708.169    22441710.866
 -13676967.85049 -10643561.51945  23879909.686    23879909.752    23879912.729
 -17425722.55049 -12763157.20946  22290318.283    22290318.374    22290322.523
 02  1 10  0  3 30.0000000  0  7G20G13G11G 1G 4G25G 7
 -27198507.86049 -20737169.14948  20681033.490    20681032.819    20681035.863
 -19224895.91649 -14947631.20447  21851748.326    21851748.449    21851751.371
 -11847462.66949  -9192951.13546  22907645.538    22907645.307    22907648.287
 -25575055.11749 -19836531.17548  20396515.593    20396515.236    20396519.066
 -16893250.05349 -13146273.64646  22425723.218    22425722.965    22425726.328
 -13638471.22149 -10613564.14545  23887235.298    23887235.841    23887239.502
 -17387939.31649 -12733715.74346  22297508.197    22297507.187    22297512.853
 02  1 10  0  4  0.0000000  0  7G20G13G11G 1G 4G25G 7
 -27161658.69249 -20708455.51748  20688045.667    20688044.964    20688048.035
 -19311178.92349 -15014864.68947  21835329.170    21835329.626    21835332.221
 -11749272.20649  -9116439.09646  22926330.524    22926329.812    22926334.131
 -25597837.22449 -19854283.45648  20392180.295    20392179.818    20392183.829
 -16977005.92349 -13211537.95046  22409784.902    22409785.219    22409787.742
 -13599485.13449 -10583185.36345  23894654.190    23894653.995    23894657.916
 -17349660.83449 -12703888.39146  22304792.298    22304791.994    22304796.314
 02  1 10  0  4 30.0000000  0  7G20G13G11G 1G 4G25G 7
 -27124511.51749 -20679509.67848  20695114.511    20695113.921    20695116.822
 -19397104.42849 -15081819.60947  21818978.088    21818978.525    21818981.435
 -11650851.27949  -9039747.50546  22945059.417    22945059.976    22945061.852
 -25620100.98449 -19871631.83948  20387943.638    20387943.331    20387946.968
 -17060512.28849 -13276607.84646  22393894.134    22393894.300    22393897.098
 -13560010.18149 -10552425.65045  23902166.111    23902165.775    23902169.361
 -17310888.09249 -12673675.88146  22312170.611    22312170.036    22312174.187
 02  1 10  0  5  0.0000000  0  7G20G13G11G 1G 4G25G 7
 -27087066.57449 -20650331.80948  20702240.053    20702239.448    20702242.597
 -19482670.38049 -15148494.34847  21802695.473    21802695.508    21802698.451
 -11552201.25949  -8962877.36246  22963832.121    22963832.170    22963834.327
 -25641846.10849 -19888576.08248  20383805.707    20383805.445    20383809.068
 -17143766.69849 -13341481.40246  22378051.360    22378050.988    22378054.332
 -13520047.17949 -10521285.64145  23909770.799    23909770.490    23909773.353
 -17271622.49349 -12643079.32246  22319642.609    22319641.883    22319646.929
 02  1 10  0  5 30.0000000  0  7G20G13G11G 1G 4G25G 7
 -27049325.01849 -20620922.81948  20709422.069    20709421.306    20709424.351
 -19567875.76949 -15214888.13547  21786481.381    21786481.293    21786484.514
 -11453324.56949  -8885830.60046  22982647.746    22982646.935    22982650.297
 -25663073.13949 -19905116.62148  20379766.349    20379765.892    20379769.565
 -17226767.54449 -13406157.39446  22362256.736    22362256.782    22362259.970
 -13479597.71249 -10489766.56045  23917468.239    23917468.051    23917471.337
 -17231866.45549 -12612100.63246  22327207.942    22327207.656    22327212.943
 02  1 10  0  6  0.0000000  0  7G20G13G11G 1G 4G25G 7
 -27011286.06149 -20591282.08448  20716660.584    20716660.125    20716662.925
 -19652717.75749 -15280998.74947  21770336.457    21770336.270    21770339.413
 -11354221.57349  -8808607.51046  23001506.287    23001506.818    23001509.744
 -25683780.85049 -19921252.49648  20375825.811    20375825.300    20375829.086
 -17309511.30349 -13470633.04946  22346511.188    22346510.932    22346514.493
 -13438661.83949 -10457868.47045  23925257.980    23925257.439    23925260.223
 -17191620.40149 -12580740.10446  22334866.536    22334866.604    22334870.108
 02  1 10  0  6 30.0000000  0  7G20G13G11G 1G 4G25G 7
 -26972952.11449 -20561411.48448  20723955.315    20723954.705    20723957.609
 -19737196.46549 -15346826.28847  21754260.630    21754260.829    21754263.890
 -11254895.82349  -8731210.81746  23020407.486    23020407.234    23020409.938
 -25703971.16549 -19936985.20148  20371983.679    20371983.369    20371987.128
 -17391997.92849 -13534908.33246  22330814.457    22330814.159    22330817.591
 -13397242.50749 -10425593.65845  23933139.836    23933139.103    23933142.264
 -17150888.03549 -12549000.60046  22342617.703    22342618.037    22342621.015
 02  1 10  0  7  0.0000000  0  7G20G13G11G 1G 4G25G 7
 -26934322.41349 -20531310.43248  20731306.314    20731305.826    20731308.552
 -19821309.02549 -15412368.52347  21738254.577    21738254.100    21738257.454
 -11155347.74349  -8653640.90646  23039350.799    23039350.849    23039353.546
 -25723642.94949 -19952313.85848  20368240.276    20368239.651    20368243.475
 -17474223.59949 -13598980.28546  22315167.332    22315167.151    22315170.443
 -13355339.61949 -10392942.05845  23941113.578    23941113.882    23941115.992
 -17109669.70349 -12516882.44546  22350461.237    22350460.668    22350465.273
 02  1 10  0  7 30.0000000  0  7G20G13G11G 1G 4G25G 7
 -26895397.22549 -20500979.12648  20738713.525    20738712.948    20738715.849
 -19905053.62749 -15477624.03247  21722318.511    21722318.452    21722321.554
 -11055578.81549  -8575898.90646  23058336.191    23058336.586    23058339.387
 -25742796.13349 -19967238.41448  20364595.489    20364595.104    20364598.870
 -17556186.12349 -13662847.18646  22299570.402    22299570.479    22299574.075
 -13312954.19449 -10359914.45145  23949179.263    23949178.569    23949181.951
 -17067967.23949 -12484387.05646  22358397.084    22358396.714    22358402.007
 02  1 10  0  8  0.0000000  0  7G20G13G11G 1G 4G25G 7
 -26856177.23849 -20470418.09848  20746176.851    20746176.221    20746179.131
 -19988428.81949 -15542591.69447  21706452.663    21706452.685    21706455.744
 -10955591.29549  -8497986.55846  23077363.246    23077363.364    23077366.235
 -25761431.22349 -19981759.26148  20361049.399    20361048.889    20361052.822
 -17637883.52649 -13726507.49146  22284023.835    22284023.542    22284027.462
 -13270087.95949 -10326512.17745  23957336.483    23957336.761    23957339.762
 -17025782.91549 -12451516.18146  22366424.488    22366423.717    22366427.956
 02  1 10  0  8 30.0000000  0  7G20G13G11G 1G 4G25G 7
 -26816663.51249 -20439628.18848  20753696.098    20753695.496    20753698.466
 -20071433.59849 -15607270.72347  21690657.407    21690657.340    21690660.270
 -10855386.90649  -8419905.22546  23096431.498    23096431.573    23096434.360
 -25779548.61249 -19995876.70148  20357601.721    20357601.456    20357604.972
 -17719313.99349 -13789959.80346  22268528.117    22268528.259    22268531.332
 -13226742.42949 -10292736.43245  23965584.928    23965585.191    23965587.587
 -16983118.59149 -12418271.27846  22374543.134    22374542.606    22374547.227
 02  1 10  0  9  0.0000000  0  7G20G13G11G 1G 4G25G 7
 -26776855.79949 -20408609.19848  20761271.196    20761270.681    20761273.664
 -20154065.93349 -15671659.53847  21674932.944    21674932.956    21674935.786
 -10754967.13049  -8341656.06046  23115540.800    23115541.274    23115543.668
 -25797147.93849 -20009590.45648  20354252.688    20354252.204    20354256.120
 -17800474.58049 -13853201.81146  22253083.802    22253084.330    22253087.238
 -13182918.30049 -10258587.76245  23973924.271    23973924.248    23973927.281
 -16939975.85749 -12384653.57646  22382753.008    22382752.903    22382757.566
 02  1 10  0  9 30.0000000  0  7G20G13G11G 1G 4G25G 7
 -26736755.61649 -20377362.31148  20768902.050    20768901.419    20768904.437
 -20236324.97549 -15735757.47747  21659279.606    21659279.713    21659282.667
 -10654334.24849  -8263240.85046  23134690.603    23134690.127    23134693.243
 -25814230.10249 -20022901.21848  20351002.045    20351001.705    20351005.409
 -17881363.93149 -13916232.46746  22237691.114    22237690.917    22237694.143
 -13138617.65549 -10224067.78345  23982354.354    23982354.082    23982358.062
 -16896357.34849 -12350665.17946  22391053.322    22391052.867    22391057.651
 02  1 10  0 10  0.0000000  0  7G20G13G11G 1G 4G25G 7
 -26696362.39949 -20345887.08248  20776588.595    20776587.977    20776591.095
 -20318207.91349 -15799562.33647  21643697.842    21643697.760    21643700.925
 -10553489.07849  -8184660.19646  23153880.884    23153880.172    23153883.139
 -25830794.23449 -20035808.32148  20347849.996    20347849.747    20347853.151
 -17961978.83849 -13979049.26946  22222350.606    22222350.387    22222353.384
 -13093840.67449 -10189176.63245  23990875.063    23990875.532    23990877.727
 -16852263.86449 -12316306.65646  22399443.933    22399443.668    22399448.013
 02  1 10  0 10 30.0000000  0  7G20G13G11G 1G 4G25G 7
 -26655677.92849 -20314184.91348  20784330.603    20784330.058    20784333.174
 -20399714.83949 -15863074.20947  21628187.550    21628187.967    21628190.113
 -10452434.84449  -8105916.63846  23173110.978    23173111.199    23173113.288
 -25846842.02649 -20048313.08748  20344796.199    20344795.731    20344799.450
 -18042318.61349 -14041651.69446  22207062.507    22207062.920    22207065.575
 -13048590.06349 -10153916.40745  23999485.963    23999486.082    23999488.550
 -16807698.84049 -12281580.67046  22407924.575    22407924.557    22407927.943
 02  1 10  0 11  0.0000000  0  7G20G13G11G 1G 4G25G 7
 -26614701.63849 -20282255.34248  20792128.126    20792127.480    20792130.700
 -20480843.14549 -15926291.05147  21612749.289    21612749.285    21612752.228
 -10351172.13649  -8027010.64546  23192380.529    23192379.340    23192382.978
 -25862372.58749 -20060414.80848  20341840.810    20341840.467    20341844.123
 -18122379.76549 -14104036.99046  22191827.381    22191827.288    22191830.168
 -13002866.22549 -10118287.43645  24008186.803    24008186.568    24008190.561
 -16762662.96549 -12246487.80746  22416494.608    22416493.315    22416499.773
 02  1 10  0 11 30.0000000  0  7G20G13G11G 1G 4G25G 7
 -26573435.19949 -20250099.68548  20799980.840    20799980.423    20799983.412
 -20561592.02949 -15989212.23947  21597383.225    21597383.363    21597386.176
 -10249703.90649  -7947944.51546  23211689.091    23211688.822    23211691.649
 -25877387.32249 -20072114.59348  20338983.632    20338983.085    20338987.080
 -18202161.04149 -14166204.21646  22176645.496    22176645.378    22176648.043
 -12956671.69949 -10082291.71145  24016977.356    24016977.772    24016981.071
 -16717159.51749 -12211030.63946  22425153.519    22425153.299    22425158.330
 02  1 10  0 12  0.0000000  0  7G20G13G11G 1G 4G25G 7
 -26531877.16949 -20217716.80548  20807889.094    20807888.289    20807891.401
 -20641958.64649 -16051835.54847  21582089.986    21582090.020    21582092.949
 -10148030.01349  -7868718.09646  23231037.042    23231037.667    23231040.202
 -25891884.68949 -20083411.23248  20336224.874    20336224.455    20336228.108
 -18281658.43849 -14228150.23546  22161517.672    22161517.461    22161520.375
 -12910005.77849 -10045928.66145  24025857.548    24025858.045    24025859.822
 -16671188.47449 -12175209.04546  22433901.746    22433901.783    22433905.982
 02  1 10  0 12 30.0000000  0  7G20G13G11G 1G 4G25G 7
 -26490029.36149 -20185108.13448  20815852.494    20815851.616    20815854.940
 -20721942.56249 -16114160.65447  21566869.525    21566869.407    21566872.253
 -10046153.42649  -7789333.75746  23250423.657    23250423.837    23250426.080
 -25905866.25949 -20094305.96248  20333564.282    20333563.527    20333567.425
 -18360871.27049 -14289874.51446  22146444.024    22146443.926    22146447.203
 -12862871.08049 -10009200.31245  24034827.243    24034828.285    24034830.085
 -16624753.33349 -12139025.82946  22442738.049    22442737.086    22442742.526
 02  1 10  0 13  0.0000000  0  7G20G13G11G 1G 4G25G 7
 -26447892.86449 -20152274.50648  20823870.804    20823870.195    20823873.420
 -20801542.93349 -16176186.89147  21551722.082    21551721.883    21551725.005
  -9944076.63149  -7709793.41946  23269848.147    23269848.889    23269850.700
 -25919332.84749 -20104799.39448  20331001.584    20331001.231    20331004.974
 -18439797.64549 -14351375.57446  22131424.654    22131425.013    22131427.908
 -12815269.78349  -9972108.38845  24043885.489    24043886.064    24043888.633
 -16577856.50249 -12102482.90246  22451662.055    22451662.058    22451666.977
 02  1 10  0 13 30.0000000  0  7G20G13G11G 1G 4G25G 7
 -26405468.14149 -20119216.28548  20831943.996    20831943.516    20831946.472
 -20880758.09749 -16237912.96347  21536647.930    21536648.049    21536650.784
  -9841801.11849  -7630098.20846  23289310.563    23289310.606    23289313.138
 -25932284.53349 -20114891.60648  20328536.948    20328536.487    20328540.352
 -18518435.12349 -14412651.51946  22116460.325    22116460.903    22116463.302
 -12767203.12749  -9934653.84545  24053032.454    24053032.342    24053035.460
 -16530499.81749 -12065581.60946  22460673.939    22460673.609    22460678.526
 02  1 10  0 14  0.0000000  0  7G20G13G11G 1G 4G25G 7
 -26362754.66349 -20085933.05948  20840072.075    20840071.489    20840074.522
 -20959585.85849 -16299337.16247  21521647.470    21521647.753    21521650.522
  -9739327.76449  -7550248.84246  23308810.604    23308810.276    23308813.612
 -25944720.87649 -20124582.25248  20326170.421    20326170.195    20326173.782
 -18596780.60949 -14473699.94146  22101551.565    22101551.834    22101555.051
 -12718671.45449  -9896836.95645  24062267.670    24062267.599    24062270.325
 -16482684.51449 -12028322.95046  22469772.953    22469771.411    22469776.028
 02  1 10  0 14 30.0000000  0  7G20G13G11G 1G 4G25G 7
 -26319752.94249 -20052425.23348  20848255.021    20848254.594    20848257.533
 -21038024.42349 -16360458.09047  21506721.049    21506720.787    21506723.775
  -9636658.26149  -7470246.63746  23328347.970    23328348.051    23328350.092
 -25956642.16049 -20133871.55948  20323901.899    20323901.396    20323905.241
 -18674831.92649 -14534519.13546  22086698.787    22086699.126    22086702.072
 -12669676.24649  -9858658.85545  24071591.185    24071590.575    24071593.694
 -16434412.50749 -11990708.42346  22478958.703    22478959.180    22478963.488
 02  1 10  0 15  0.0000000  0  7G20G13G11G 1G 4G25G 7
 -26276464.32749 -20018693.85348  20856492.628    20856492.111    20856495.109
 -21116073.64249 -16421275.63947  21491868.817    21491869.039    21491871.526
  -9533795.50749  -7390093.85746  23347922.274    23347921.830    23347925.134
 -25968049.71549 -20142760.55948  20321731.065    20321730.599    20321734.468
 -18752587.77249 -14595108.09947  22071902.328    22071902.510    22071905.658
 -12620220.13449  -9820121.63645  24081002.323    24081002.469    24081005.072
 -16385687.27049 -11952740.74446  22488230.984    22488230.982    22488236.158
 02  1 10  0 15 30.0000000  0  7G20G13G11G 1G 4G25G 7
 -26232889.71149 -19984739.61548  20864784.659    20864784.011    20864786.936
 -21193732.12149 -16481788.71647  21477090.845    21477091.189    21477093.775
  -9430741.35949  -7309791.91846  23367532.902    23367532.394    23367534.591
 -25978944.13549 -20151249.71548  20319657.933    20319657.474    20319661.244
 -18830046.31649 -14655465.40147  22057162.482    22057163.094    22057165.513
 -12570304.65549  -9781226.45145  24090500.982    24090500.104    24090502.308
 -16336510.74949 -11914421.41346  22497588.960    22497587.684    22497592.582
 02  1 10  0 16  0.0000000  0  7G20G13G11G 1G 4G25G 7
 -26189027.82449 -19950561.52848  20873131.289    20873130.832    20873133.703
 -21270996.62549 -16541994.80247  21462387.900    21462387.838    21462390.560
  -9327495.96849  -7229340.97246  23387179.781    23387179.173    23387182.913
 -25989324.04749 -20159337.95748  20317682.705    20317682.231    20317685.985
 -18907203.20049 -14715587.64147  22042480.081    22042480.518    22042482.992
 -12519929.23649  -9741972.86145  24100087.039    24100086.028    24100089.442
 -16286883.39249 -11875750.77246  22507032.483    22507031.926    22507036.360
 02  1 10  0 16 30.0000000  0  7G20G13G11G 1G 4G25G 7
 -26144880.36549 -19916160.91148  20881532.302    20881531.646    20881534.555
 -21347866.79749 -16601893.60047  21447759.952    21447760.005    21447762.584
  -9224062.27649  -7148743.29646  23406862.583    23406862.676    23406864.818
 -25999191.12149 -20167026.57548  20315805.068    20315804.661    20315808.479
 -18984057.68349 -14775474.24847  22027855.135    22027855.023    22027858.801
 -12469096.86949  -9702363.20845  24109760.113    24109760.240    24109761.718
 -16236808.50249 -11836731.37246  22516561.632    22516561.489    22516565.631
 02  1 10  0 17  0.0000000  0  7G20G13G11G 1G 4G25G 7
 -26100447.76749 -19881538.11847  20889987.520    20889986.693    20889989.801
 -21424341.55349 -16661484.29847  21433207.242    21433207.149    21433209.747
  -9120442.07849  -7068000.30546  23426580.749    23426580.056    23426582.341
 -26008545.86749 -20174315.98448  20314024.891    20314024.344    20314028.134
 -19060607.36149 -14835123.34647  22013288.232    22013288.527    22013291.478
 -12417809.21449  -9662398.80945  24119519.800    24119519.384    24119521.924
 -16186288.29249 -11797365.02246  22526175.337    22526173.615    22526179.846
 02  1 10  0 17 30.0000000  0  7G20G13G11G 1G 4G25G 7
 -26055729.60349 -19846692.80147  20898497.086    20898496.512    20898499.355
 -21500418.80249 -16720765.24647  21418730.200    21418730.052    21418733.034
  -9016636.37449  -6987112.74946  23446334.234    23446335.060    23446336.271
 -26017387.79649 -20181205.79448  20312342.336    20312341.878    20312345.658
 -19136849.20849 -14894532.56547  21998779.908    21998779.862    21998782.878
 -12366066.85649  -9622080.08345  24129366.048    24129365.798    24129370.322
 -16135323.89949 -11757652.54746  22535873.410    22535873.579    22535876.993
 02  1 10  0 18  0.0000000  0  7G20G13G11G 1G 4G25G 7
 -26010728.71549 -19811627.17947  20907060.462    20907059.994    20907062.895
 -21576098.66649 -16779736.53547  21404328.703    21404328.712    21404331.994
  -8912648.96449  -6906083.58646  23466122.333    23466123.041    23466125.573
 -26025719.52949 -20187698.04648  20310756.880    20310756.456    20310760.266
 -19212782.97149 -14953701.72247  21984330.196    21984330.495    21984333.306
 -12313873.31249  -9581409.80145  24139298.162    24139298.222    24139300.037
 -16083919.88549 -11717597.47346  22545655.520    22545655.807    22545658.342
 02  1 10  0 18 30.0000000  0  7G20G13G11G 1G 4G25G 7
 -25965443.93149 -19776340.34347  20915677.797    20915677.138    20915680.076
 -21651378.77949 -16838396.34747  21390003.367    21390003.669    21390006.164
  -8808480.48149  -6824913.34446  23485944.995    23485944.569    23485947.239
 -26033540.07949 -20193791.97648  20309268.656    20309268.166    20309271.947
 -19288404.99049 -15012627.97047  21969939.846    21969940.217    21969942.925
 -12261228.86749  -9540388.15845  24149315.994    24149316.086    24149319.603
 -16032076.83849 -11677200.32746  22555520.879    22555519.639    22555525.973
 02  1 10  0 19  0.0000000  0  7G20G13G11G 1G 4G25G 7
 -25919876.01149 -19740832.87647  20924349.025    20924348.305    20924351.696
 -21726258.08749 -16896743.83447  21375754.326    21375754.563    21375757.185
  -8704132.71949  -6743603.40145  23505801.691    23505801.682    23505804.461
 -26040850.15149 -20199488.13748  20307877.582    20307877.219    20307881.052
 -19363713.27149 -15071309.73847  21955609.208    21955609.178    21955611.984
 -12208135.21049  -9499016.48345  24159419.440    24159418.882    24159421.736
 -15979797.34149 -11636463.10746  22565469.231    22565468.731    22565473.509
 02  1 10  0 19 30.0000000  0  7G20G13G11G 1G 4G25G 7
 -25874026.57449 -19705106.04947  20933073.885    20933073.255    20933076.561
 -21800736.22749 -16954778.72447  21361581.609    21361581.365    21361584.544
  -8599608.65149  -6662156.08745  23525691.968    23525691.802    23525694.673
 -26047651.34949 -20204787.78348  20306583.367    20306582.775    20306586.661
 -19438706.60249 -15129746.09947  21941338.502    21941339.087    21941341.665
 -12154594.89349  -9457296.76145  24169607.732    24169608.198    24169611.042
 -15927084.54849 -11595388.22546  22575500.259    22575500.386    22575504.429
 02  1 10  0 20  0.0000000  0  7G20G13G11G 1G 4G25G 7
 -25827894.46049 -19669158.94947  20941852.597    20941852.048    20941855.169
 -21874810.46849 -17012498.88047  21347485.675    21347485.813    21347488.423
  -8494908.52149  -6580571.57545  23545615.810    23545615.739    23545618.695
 -26053942.66749 -20209690.10648  20305386.145    20305385.914    20305389.439
 -19513381.23249 -15187934.11147  21927128.412    21927128.415    21927131.501
 -12100608.21649  -9415229.23145  24179880.952    24179880.977    24179883.303
 -15873939.09649 -11553976.19346  22585613.553    22585612.326    22585617.327
 02  1 10  0 20 30.0000000  0  7G20G13G11G 1G 4G25G 7
 -25781480.36749 -19632992.12647  20950684.862    20950684.383    20950687.400
 -21948479.22049 -17069903.08047  21333467.006    21333467.188    21333469.972
  -8390034.09749  -6498851.24545  23565572.833    23565572.684    23565575.064
 -26059724.71849 -20214195.59448  20304285.899    20304285.376    20304289.153
 -19587735.11949 -15245872.20947  21912979.361    21912979.410    21912982.531
 -12046176.99449  -9372815.29845  24190238.861    24190239.076    24190242.019
 -15820363.41349 -11512228.95946  22595808.589    22595808.867    22595814.046
 02  1 10  0 21  0.0000000  0  7G20G13G11G 1G 4G25G 7
 -25734785.70249 -19596606.67447  20959570.600    20959570.052    20959572.849
 -22021742.26949 -17126991.14147  21319525.481    21319525.580    21319528.198
  -8284988.17549  -6416997.28645  23585562.405    23585562.065    23585564.287
 -26064998.83849 -20218305.28848  20303282.203    20303281.521    20303285.486
 -19661766.53449 -15303559.01747  21898891.625    21898891.503    21898894.676
 -11991303.35349  -9330056.62045  24200680.958    24200680.937    24200683.652
 -15766360.59349 -11470148.88046  22606085.217    22606084.493    22606089.482
 02  1 10  0 21 30.0000000  0  7G20G13G11G 1G 4G25G 7
 -25687809.53649 -19560001.88347  20968509.895    20968509.383    20968512.396
 -22094597.08849 -17183761.11547  21305661.670    21305661.857    21305664.164
  -8179771.34049  -6335010.14345  23605584.461    23605584.424    23605586.141
 -26069764.49549 -20222018.79448  20302375.337    20302374.858    20302378.573
 -19735472.27449 -15360992.06947  21884865.935    21884865.893    21884868.745
 -11935987.76449  -9286953.56745  24211207.100    24211207.610    24211210.270
 -15711931.74149 -11427736.84746  22616442.600    22616441.094    22616446.246
 02  1 10  0 22  0.0000000  0  7G20G13G11G 1G 4G25G 7
 -25640554.03349 -19523179.41447  20977502.329    20977501.628    20977504.736
 -22167043.65849 -17240212.96047  21291875.507    21291875.601    21291878.496
  -8074387.05249  -6252892.52545  23625638.408    23625638.201    23625641.609
 -26074023.81549 -20225337.74748  20301564.754    20301564.339    20301568.092
 -19808851.54949 -15418170.72047  21870902.329    21870902.789    21870905.464
 -11880233.55649  -9243508.74445  24221817.095    24221817.445    24221819.794
 -15657080.60349 -11384995.73046  22626880.269    22626880.497    22626884.980
 02  1 10  0 22 30.0000000  0  7G20G13G11G 1G 4G25G 7
 -25593018.75049 -19486138.94447  20986548.039    20986547.625    20986550.427
 -22239080.29349 -17296345.38047  21278167.374    21278167.471    21278170.446
  -7968836.25449  -6170645.15445  23645724.172    23645724.476    23645727.647
 -26077776.66349 -20228262.04448  20300850.620    20300850.114    20300853.985
 -19881901.34049 -15475092.62947  21857001.410    21857001.593    21857004.411
 -11824041.79649  -9199722.95745  24232510.052    24232510.622    24232513.671
 -15601808.59649 -11341926.66446  22637398.416    22637398.325    22637403.132
 02  1 10  0 23  0.0000000  0  7G20G13G11G 1G 4G25G 7
 -25545204.46349 -19448881.06347  20995646.807    20995646.237    20995649.241
 -22310706.15849 -17352157.71247  21264537.406    21264537.167    21264540.338
  -7863120.98149  -6088269.61245  23665841.099    23665840.579    23665844.512
 -26081023.85349 -20230792.31848  20300232.660    20300232.242    20300236.038
 -19954619.57349 -15531756.19147  21843163.615    21843163.802    21843166.865
 -11767414.00049  -9155597.39245  24243285.936    24243285.972    24243288.389
 -15546118.44249 -11298531.79446  22647995.850    22647995.149    22648001.219
 02  1 10  0 23 30.0000000  0  7G20G13G11G 1G 4G25G 7
 -25497112.02049 -19411406.44247  21004798.522    21004798.091    21004800.818
 -22381919.71049 -17407648.76347  21250985.920    21250986.098    21250988.556
  -7757243.25449  -6005767.49045  23685988.901    23685988.911    23685992.346
 -26083766.14049 -20232929.16248  20299710.809    20299710.363    20299714.334
 -20027004.19949 -15588159.79347  21829389.342    21829389.628    21829392.356
 -11710352.26049  -9111133.68445  24254144.393    24254145.205    24254147.474
 -15490012.62549 -11254813.01946  22658672.389    22658672.467    22658676.033
 02  1 10  0 24  0.0000000  0  7G20G13G11G 1G 4G25G 7
 -25448741.40649 -19373715.05647  21014003.163    21014002.469    21014005.568
 -22452719.34749 -17462817.28747  21237513.220    21237513.425    21237516.148
  -7651204.62249  -5923139.98345  23706167.255    23706166.742    23706169.500
 -26086003.77049 -20234672.76448  20299285.030    20299284.688    20299288.454
 -20099052.36749 -15644301.22247  21815678.957    21815679.309    21815681.974
 -11652857.86249  -9066332.84645  24265085.256    24265085.081    24265088.141
 -15433493.08049 -11210771.80946  22669427.969    22669427.222    22669431.981
 02  1 10  0 24 30.0000000  0  7G20G13G11G 1G 4G25G 7
 -25400092.70649 -19335806.98447  21023260.707    21023260.060    21023262.998
 -22523103.55649 -17517662.10147  21224119.521    21224119.778    21224122.347
  -7545006.39849  -5840388.13545  23726375.965    23726375.542    23726379.086
 -26087737.13049 -20236023.43148  20298955.165    20298954.856    20298958.510
 -20170761.92349 -15700178.80047  21802033.087    21802033.566    21802036.429
 -11594931.75649  -9021195.61045  24276108.157    24276107.910    24276111.195
 -15376561.86749 -11166409.88646  22680261.390    22680259.623    22680266.078
 02  1 10  0 25  0.0000000  0  7G20G13G11G 1G 4G25G 7
 -25351166.96349 -19297683.03347  21032570.942    21032570.385    21032573.275
 -22593071.78049 -17572182.77847  21210805.060    21210805.215    21210807.581
  -7438651.26949  -5757514.00545  23746614.874    23746615.100    23746617.872
 -26088967.36349 -20236982.05248  20298721.073    20298720.808    20298724.461
 -20242130.84449 -15755790.94747  21788452.033    21788451.889    21788455.307
 -11536576.63849  -8975724.10345  24287212.629    24287212.613    24287214.350
 -15319221.85049 -11121729.41746  22691172.654    22691173.088    22691177.271
 02  1 10  0 25 30.0000000  0  7G20G13G11G 1G 4G25G 7
 -25301965.21449 -19259344.01147  21041933.684    21041932.813    21041936.085
 -22662623.12849 -17626378.61147  21197569.819    21197569.828    21197572.473
  -7332141.17049  -5674519.12245  23766883.043    23766882.300    23766886.490
 -26089695.65949 -20237549.55248  20298582.486    20298582.094    20298585.964
 -20313157.48949 -15811136.38147  21774936.120    21774936.345    21774939.453
 -11477794.60049  -8929919.90345  24298398.538    24298398.319    24298400.068
 -15261475.89749 -11076732.56446  22702161.565    22702161.471    22702165.692
 02  1 10  0 26  0.0000000  0  7G20G13G11G 1G 4G25G 7
 -25252487.91649 -19220790.28847  21051348.880    21051348.155    21051351.332
 -22731756.61949 -17680248.84647  21184414.072    21184414.305    21184416.799
  -7225477.90949  -5591404.89745  23787180.414    23787180.468    23787183.441
 -26089922.97849 -20237726.68448  20298539.216    20298538.834    20298542.481
 -20383839.62049 -15866213.36947  21761485.687    21761485.467    21761488.693
 -11418587.38549  -8883784.40645  24309665.252    24309664.340    24309667.844
 -15203326.45649 -11031421.32546  22713227.013    22713225.821    22713232.527
 02  1 10  0 26 30.0000000  0  7G20G13G11G 1G 4G25G 7
 -25202734.60249 -19182021.48047  21060816.593    21060815.811    21060819.214
 -22800470.42449 -17733792.04947  21171338.318    21171338.287    21171341.090
  -7118662.86749  -5508172.41245  23807506.748    23807506.876    23807509.238
 -26089649.13149 -20237513.29648  20298591.313    20298590.908    20298594.621
 -20454174.24349 -15921019.57147  21748101.367    21748101.473    21748104.604
 -11358956.09749  -8837318.47745  24321012.753    24321011.724    24321013.979
 -15144775.11849 -10985796.98446  22724368.902    22724369.436    22724374.616
 02  1 10  0 27  0.0000000  0  7G20G13G11G 1G 4G25G 7
 -25152707.26049 -19143039.14547  21070336.434    21070335.840    21070338.952
 -22868764.40949 -17787008.12347  21158342.371    21158342.374    21158345.116
  -7011699.17349  -5424824.08045  23827861.474    23827862.514    23827863.388
 -26088876.08649 -20236910.92048  20298738.437    20298738.106    20298741.772
 -20524160.25349 -15975554.12447  21734783.484    21734783.522    21734786.793
 -11298903.85649  -8790524.53545  24332440.364    24332439.752    24332442.001
 -15085825.57549 -10939862.31446  22735586.984    22735586.651    22735591.147
 02  1 10  0 27 30.0000000  0  7G20G13G11G 1G 4G25G 7
 -25102405.76449 -19103843.17947  21079908.500    21079907.973    21079911.112
 -22936636.97849 -17839895.81747  21145426.634    21145426.566    21145429.230
  -6904588.18349  -5341360.96445  23848244.293    23848243.335    23848246.578
 -26087604.17649 -20235919.80548  20298980.496    20298980.308    20298983.831
 -20593794.96549 -16029814.93747  21721532.440    21721532.426    21721535.780
 -11238432.34049  -8743403.85945  24343947.839    24343947.976    24343950.600
 -15026479.86449 -10893618.91346  22746880.083    22746879.443    22746884.133
 02  1 10  0 28  0.0000000  0  7G20G13G11G 1G 4G25G 7
 -25051829.87049 -19064433.40547  21089532.767    21089532.421    21089535.593
 -23004086.29649 -17892453.70847  21132591.414    21132591.521    21132594.244
  -6797330.80549  -5257783.79145  23868654.652    23868654.554    23868656.948
 -26085833.44149 -20234540.01548  20299317.438    20299317.065    20299320.910
 -20663075.51849 -16083799.78747  21708348.790    21708348.693    21708351.970
 -11177542.25949  -8695957.06245  24355534.751    24355535.134    24355537.467
 -14966739.48149 -10847068.02146  22758248.166    22758248.862    22758253.591
 02  1 10  0 28 30.0000000  0  7G20G13G11G 1G 4G25G 7
 -25000980.80649 -19024810.76647  21099209.121    21099208.672    21099211.729
 -23071111.78849 -17944681.34147  21119836.837    21119836.941    21119839.682
  -6689929.77049  -5174094.67745  23889092.225    23889091.736    23889094.381
 -26083565.09349 -20232772.46848  20299749.132    20299748.796    20299752.483
 -20731999.94749 -16137507.13847  21695232.896    21695233.193    21695236.235
 -11116235.54149  -8648185.60145  24367201.222    24367201.497    24367204.172
 -14906607.72949 -10800212.16746  22769691.193    22769690.501    22769695.673
 02  1 10  0 29  0.0000000  0  7G20G13G11G 1G 4G25G 7
 -24949858.67149 -18984975.34147  21108937.356    21108936.937    21108939.906
 -23137712.05349 -17996577.62847  21107163.205    21107163.275    21107165.801
  -6582386.59049  -5090294.79945  23909556.772    23909556.918    23909559.501
 -26080799.89249 -20230617.76248  20300275.334    20300274.902    20300278.635
 -20800566.18649 -16190935.37747  21682185.176    21682185.355    21682188.425
 -11054514.12449  -8600090.99845  24378946.422    24378946.377    24378949.410
 -14846086.67449 -10753052.95646  22781207.933    22781207.478    22781212.347
 02  1 10  0 29 30.0000000  0  7G20G13G11G 1G 4G25G 7
 -24898463.96649 -18944927.52447  21118717.466    21118716.917    21118720.153
 -23203886.11349 -18048141.81047  21094570.635    21094570.703    21094573.410
  -6474703.07449  -5006385.57845  23930048.304    23930047.343    23930051.409
 -26077538.53949 -20228076.44448  20300895.947    20300895.562    20300899.201
 -20868771.82249 -16244082.62747  21669206.075    21669206.201    21669209.370
 -10992379.75749  -8551674.59845  24390770.263    24390770.041    24390773.394
 -14785178.81449 -10705592.28546  22792798.274    22792797.784    22792802.935
 02  1 10  0 30  0.0000000  0  7G20G13G11G 1G 4G25G 7
 -24846797.27949 -18904667.77647  21128549.288    21128548.850    21128551.952
 -23269633.07949 -18099373.19247  21082059.378    21082059.704    21082062.308
  -6366880.96049  -4922368.34845  23950566.328    23950565.738    23950569.478
 -26073781.93049 -20225149.20748  20301610.797    20301610.238    20301613.938
 -20936614.55149 -16296947.09247  21656296.038    21656295.968    21656299.125
 -10929834.36749  -8502937.93745  24402672.182    24402671.502    24402674.975
 -14723886.75849 -10657832.28246  22804461.761    22804460.281    22804466.158
 02  1 10  0 30 30.0000000  0  7G20G13G11G 1G 4G25G 7
 -24794859.45649 -18864196.75547  21138432.711    21138432.048    21138435.319
 -23334952.21649 -18150271.20247  21069629.599    21069629.799    21069632.515
  -6258922.90949  -4838245.18445  23971110.198    23971109.766    23971112.176
 -26069531.44049 -20221837.12948  20302419.616    20302419.228    20302422.798
 -21004092.69549 -16349527.46747  21643455.397    21643455.558    21643458.815
 -10866880.36249  -8453882.87945  24414651.855    24414651.508    24414655.496
 -14662213.36549 -10609775.17946  22816197.636    22816197.365    22816201.964
 02  1 10  0 31  0.0000000  0  7G20G13G11G 1G 4G25G 7
 -24742651.03749 -18823514.87947  21148367.646    21148367.170    21148370.306
 -23399842.55749 -18200835.08047  21057281.318    21057281.527    21057283.995
  -6150830.70549  -4754017.49445  23991679.481    23991679.606    23991682.698
 -26064787.83649 -20218140.80948  20303322.297    20303322.023    20303325.538
 -21071204.19249 -16401822.13847  21630684.434    21630684.519    21630687.878
 -10803519.47649  -8404510.76145  24426708.985    24426708.292    24426711.800
 -14600161.36549 -10561422.99146  22828005.980    22828005.381    22828009.304
 02  1 10  0 31 30.0000000  0  7G20G13G11G 1G 4G25G 7
 -24690171.98649 -18782622.11947  21158354.122    21158353.587    21158356.817
 -23464302.34849 -18251063.47847  21045015.063    21045015.279    21045017.838
  -6042605.61749  -4669686.26645  24012274.200    24012273.939    24012277.578
 -26059551.47549 -20214060.52948  20304318.788    20304318.443    20304322.118
 -21137946.12249 -16453828.83647  21617983.880    21617984.201    21617987.293
 -10739752.99849  -8354822.59945  24438843.335    24438843.051    24438846.283
 -14537732.42949 -10512777.09646  22839885.863    22839885.077    22839892.196
 02  1 10  0 32  0.0000000  0  7G20G13G11G 1G 4G25G 7
 -24637424.42849 -18741520.13547  21168391.606    21168390.938    21168394.148
 -23528332.14749 -18300956.80447  21032830.573    21032830.604    21032833.418
  -5934251.30149  -4585254.33845  24032893.263    24032893.724    24032895.179
 -26053825.12249 -20209598.43248  20305408.453    20305408.128    20305411.535
 -21204317.82149 -16505547.04747  21605353.835    21605353.945    21605357.363
 -10675584.52849  -8304821.20245  24451053.979    24451053.328    24451057.959
 -14474931.00649 -10463840.99446  22851836.355    22851836.663    22851841.035
 02  1 10  0 32 30.0000000  0  8G20G24G13G11G 1G 4G25G 7
 -24584407.52149 -18700208.26247  21178480.354    21178479.704    21178482.759
  -3698202.26149  -2858290.70745  24926699.661    24926699.545    24926704.322
 -23591929.54449 -18350513.18847  21020728.369    21020728.582    21020730.989
  -5825768.08849  -4500721.95945  24053536.896    24053536.803    24053538.826
 -26047608.00449 -20204753.91948  20306591.538    20306591.259    20306594.677
 -21270315.84549 -16556974.07847  21592794.764    21592794.889    21592798.355
 -10611014.83749  -8254507.17545  24463341.028    24463341.161    24463343.357
 -14411758.17049 -10414615.43546  22863857.943    22863858.580    22863863.097
 02  1 10  0 33  0.0000000  0  8G20G24G13G11G 1G 4G25G 7
 -24531123.93049 -18658688.58647  21188619.857    21188619.374    21188622.470
  -3800303.01449  -2937849.64145  24907270.515    24907270.775    24907275.000
 -23655095.81749 -18399733.64447  21008708.295    21008708.614    21008711.162
  -5717160.27649  -4416092.49645  24074204.204    24074203.206    24074206.588
 -26040903.27249 -20199529.44748  20307867.420    20307867.086    20307870.561
 -21335940.21449 -16608109.95247  21580306.809    21580306.884    21580310.299
 -10546048.03649  -8203883.69445  24475703.734    24475702.054    24475707.218
 -14348218.87149 -10365104.30446  22875949.275    22875949.210    22875953.734
 02  1 10  0 33 30.0000000  0  8G20G24G13G11G 1G 4G25G 7
 -24477570.98349 -18616959.02947  21198810.713    21198810.039    21198813.390
  -3902340.91449  -3017359.74545  24887853.765    24887852.948    24887855.629
 -23717826.90249 -18448614.98747  20996770.908    20996770.788    20996773.573
  -5608426.43849  -4331364.83345  24094895.448    24094894.192    24094898.408
 -26033708.71049 -20193923.28548  20309236.492    20309236.028    20309239.675
 -21401185.47549 -16658950.41447  21567890.949    21567891.130    21567894.402
 -10480682.86949  -8152949.82445  24488142.217    24488142.512    24488146.288
 -14284312.35549 -10315307.10946  22888110.103    22888109.631    22888116.085
 02  1 10  0 34  0.0000000  0  8G20G24G13G11G 1G 4G25G 7
 -24423747.74449 -18575018.85247  21209052.952    21209052.478    21209055.641
  -4004312.40849  -3096818.01245  24868449.568    24868449.960    24868452.263
 -23780120.28749 -18497155.26747  20984916.776    20984917.024    20984919.724
  -5499567.09449  -4246539.37445  24115610.468    24115610.480    24115613.809
 -26026023.94449 -20187935.15348  20310698.880    20310698.506    20310701.887
 -21466048.06149 -16709492.68647  21555547.965    21555548.195    21555551.784
 -10414919.66849  -8101705.76745  24500656.615    24500657.768    24500661.387
 -14220039.75849 -10265224.62446  22900340.841    22900340.804    22900346.721
 02  1 10  0 34 30.0000000  0  8G20G24G13G11G 1G 4G25G 7
 -24369658.80349 -18532871.63347  21219345.768    21219345.043    21219348.200
  -4106220.72149  -3176227.06145  24849056.951    24849055.487    24849060.661
 -23841979.63849 -18545357.34347  20973145.414    20973145.853    20973148.319
  -5390588.35949  -4161620.88545  24136348.530    24136348.684    24136351.577
 -26017854.26349 -20181569.16748  20312253.492    20312253.140    20312256.670
 -21530530.01949 -16759738.37547  21543277.469    21543277.989    21543280.644
 -10348764.52449  -8050156.31745  24513245.399    24513245.124    24513247.825
 -14155407.96949 -10214862.23146  22912640.117    22912639.999    22912644.349
 02  1 10  0 35  0.0000000  0  8G20G24G13G11G 1G 4G25G 7
 -24315301.52149 -18490515.32247  21229689.653    21229688.902    21229692.120
  -4208059.76549  -3255582.11745  24829677.409    24829677.382    24829681.901
 -23903400.45849 -18593217.70247  20961457.455    20961457.605    20961459.998
  -5281488.68349  -4076608.15845  24157109.633    24157109.461    24157112.923
 -26009197.42149 -20174823.57148  20313900.816    20313900.409    20313903.971
 -21594625.77449 -16809683.11347  21531080.477    21531080.603    21531083.802
 -10282216.12049  -7998300.39745  24525909.364    24525909.736    24525911.795
 -14090416.31549 -10164219.40146  22925007.503    22925007.008    22925011.361
 02  1 10  0 35 30.0000000  0  8G20G24G13G11G 1G 4G25G 7
 -24260678.65049 -18447952.06047  21240084.045    21240083.606    21240086.509
  -4309830.17549  -3334883.73745  24810311.053    24810309.950    24810314.178
 -23964384.14449 -18640737.44247  20949852.611    20949852.579    20949855.335
  -5172272.38449  -3991504.53845  24177893.028    24177892.753    24177895.477
 -26000056.58649 -20167700.84248  20315640.267    20315639.955    20315643.275
 -21658335.45949 -16859327.03047  21518956.959    21518957.146    21518960.126
 -10215278.70149  -7946141.34945  24538647.300    24538646.479    24538649.083
 -14025069.78249 -10113300.06546  22937442.555    22937442.609    22937448.745
 02  1 10  0 36  0.0000000  0  8G20G24G13G11G 1G 4G25G 7
 -24205791.49649 -18405182.85747  21250528.722    21250528.315    21250531.391
  -4411530.54849  -3414130.73545  24790957.972    24790958.077    24790961.855
 -24024930.44749 -18687916.35847  20938331.011    20938331.225    20938333.679
  -5062942.26349  -3906312.22345  24198697.783    24198696.641    24198699.766
 -25990433.72849 -20160202.51048  20317471.453    20317471.057    20317474.613
 -21721657.89249 -16908669.18747  21506907.150    21506907.468    21506910.363
 -10147955.54549  -7893681.74045  24551458.602    24551459.099    24551460.887
 -13959371.74149 -10062106.86146  22949944.529    22949944.494    22949949.367
 02  1 10  0 36 30.0000000  0  8G20G24G13G11G 1G 4G25G 7
 -24150636.69649 -18362205.09847  21261024.330    21261023.929    21261027.058
  -4513155.18149  -3493318.73145  24771619.522    24771619.365    24771623.394
 -24085034.76349 -18734750.86847  20926893.536    20926893.663    20926896.122
  -4953496.20249  -3821029.58145  24219524.613    24219523.793    24219527.286
 -25980325.83949 -20152326.23048  20319394.915    20319394.616    20319398.112
 -21784586.77949 -16957704.69147  21494932.318    21494932.588    21494935.316
 -10080244.30749  -7840919.72845  24564343.738    24564343.609    24564346.939
 -13893320.91749 -10010638.77246  22962513.502    22962514.162    22962517.379
 02  1 10  0 37  0.0000000  0  8G20G24G13G11G 1G 4G25G 7
 -24095217.90549 -18319021.63747  21271570.252    21271569.669    21271572.907
  -4614704.96349  -3572448.43645  24752295.183    24752294.563    24752298.812
 -24144699.19049 -18781242.60147  20915539.719    20915539.773    20915542.430
  -4843939.33949  -3735660.60445  24240372.414    24240372.080    24240374.447
 -25969737.17149 -20144075.31748  20321409.873    20321409.551    20321412.995
 -21847123.33949 -17006434.48047  21483031.961    21483032.086    21483035.317
 -10012150.43149  -7787859.55545  24577301.601    24577301.208    24577304.951
 -13826923.30649  -9958900.39946  22975148.773    22975148.496    22975152.966
 02  1 10  0 37 30.0000000  0  8G20G24G13G11G 1G 4G25G 7
 -24039535.33749 -18275632.63247  21282166.282    21282165.593    21282168.821
  -4716178.13349  -3651518.43145  24732985.657    24732984.631    24732990.119
 -24203922.72549 -18827390.78847  20904269.820    20904269.975    20904272.597
  -4734273.43349  -3650206.66345  24261241.136    24261240.093    24261243.939
 -25958668.64749 -20135450.48848  20323516.116    20323515.683    20323519.338
 -21909264.96149 -17054856.52347  21471206.807    21471206.683    21471210.164
  -9943675.35749  -7734502.36145  24590332.082    24590331.298    24590334.735
 -13760181.19149  -9906893.62346  22987849.453    22987848.813    22987854.649
 02  1 10  0 38  0.0000000  0  8G20G24G13G11G 1G 4G25G 7
 -23983589.35749 -18232038.37647  21292812.476    21292811.793    21292815.031
  -4817572.23649  -3730526.76345  24713690.861    24713690.768    24713694.229
 -24262704.50549 -18873194.74847  20893083.984    20893084.179    20893086.659
  -4624500.10549  -3564668.99345  24282130.263    24282129.931    24282132.153
 -25947121.09449 -20126452.39148  20325713.541    20325713.102    20325716.839
 -21971009.38849 -17102969.06047  21459457.242    21459457.397    21459460.373
  -9874820.93149  -7680849.55545  24603434.785    24603435.046    24603437.575
 -13693097.08149  -9854620.39546  23000614.916    23000614.426    23000620.161
 02  1 10  0 38 30.0000000  0  8G20G24G13G11G 1G 4G25G 7
 -23927379.86249 -18188238.78047  21303508.758    21303508.058    21303511.522
  -4918884.25949  -3809471.19845  24694411.965    24694411.535    24694413.737
 -24321042.89249 -18918653.21147  20881982.553    20881982.774    20881985.113
  -4514620.61249  -3479048.61545  24303039.567    24303039.526    24303042.777
 -25935094.88349 -20117081.31548  20328002.010    20328001.567    20328005.272
 -22032353.93849 -17150770.00847  21447783.703    21447783.658    21447786.897
  -9805588.85049  -7626902.48045  24616609.194    24616608.407    24616612.762
 -13625673.20849  -9802082.33346  23013445.388    23013446.053    23013448.892
 02  1 10  0 39  0.0000000  0  8G20G24G13G11G 1G 4G25G 7
 -23870908.36049 -18144235.02247  21314254.896    21314254.239    21314257.603
  -5020113.37849  -3888351.03245  24675148.724    24675149.539    24675152.596
 -24378937.99349 -18963766.25647  20870965.512    20870965.461    20870968.038
  -4404638.15149  -3393347.98245  24323968.666    24323968.127    24323971.609
 -25922592.11449 -20107338.88748  20330381.166    20330380.840    20330384.482
 -22093297.39749 -17198258.41647  21436186.527    21436186.667    21436189.758
  -9735981.89749  -7572663.33645  24629854.832    24629854.886    24629857.824
 -13557912.98749  -9749282.21246  23026339.756    23026339.527    23026345.133
 02  1 10  0 39 30.0000000  0  8G20G24G13G11G 1G 4G25G 7
 -23814173.91249 -18100026.36847  21325051.119    21325050.695    21325053.962
  -5121256.68149  -3967163.94645  24655901.860    24655901.904    24655903.767
 -24436387.85149 -19008532.35847  20860033.148    20860033.289    20860035.702
  -4294553.07249  -3307567.39845  24344917.216    24344916.155    24344920.113
 -25909612.54949 -20097224.93848  20332851.126    20332850.770    20332854.399
 -22153836.29149 -17245431.58247  21424666.360    21424666.902    21424669.761
  -9666001.15549  -7518132.88745  24643171.700    24643172.117    24643174.533
 -13489817.88449  -9696221.17846  23039297.861    23039298.266    23039302.774
 02  1 10  0 40  0.0000000  0  8G20G24G13G11G 1G 4G25G 7
 -23757177.83649 -18055613.84747  21335897.169    21335896.556    21335899.869
  -5222312.56749  -4045908.81045  24636671.527    24636670.938    24636676.254
 -24493392.20349 -19052951.31647  20849185.573    20849185.809    20849187.965
  -4184367.84349  -3221708.78945  24365884.875    24365884.449    24365887.225
 -25896158.08849 -20086740.93448  20335411.427    20335410.968    20335414.599
 -22213969.37149 -17292288.52947  21413223.438    21413223.674    21413226.626
  -9595649.31649  -7463313.29445  24656559.131    24656558.390    24656561.595
 -13421391.52749  -9642901.97746  23052319.182    23052318.342    23052324.276
 02  1 10  0 40 30.0000000  0  8G20G24G13G11G 1G 4G25G 7
 -23699921.59549 -18010998.60447  21346792.693    21346791.764    21346795.175
  -5323279.60849  -4124584.39445  24617458.094    24617456.460    24617460.476
 -24549951.53449 -19097023.50147  20838422.685    20838422.810    20838425.230
  -4074085.68149  -3135774.61845  24386871.020    24386869.681    24386873.226
 -25882230.86549 -20075888.54648  20338061.700    20338061.373    20338064.932
 -22273695.28849 -17338828.20447  21401858.021    21401858.212    21401861.292
  -9524928.97949  -7408206.56445  24670016.646    24670016.373    24670021.635
 -13352637.47149  -9589327.42945  23065402.529    23065400.565    23065407.235
 02  1 10  0 41  0.0000000  0  8G20G24G13G11G 1G 4G25G 7
 -23642403.83049 -17966179.57747  21357737.919    21357737.336    21357740.027
  -5424154.42949  -4203188.11745  24598262.195    24598260.808    24598263.812
 -24606063.26149 -19140746.91148  20827744.934    20827744.952    20827747.360
  -3963706.61649  -3049764.95345  24407875.386    24407874.220    24407877.576
 -25867830.12349 -20064667.18948  20340802.024    20340801.656    20340805.424
 -22333010.14349 -17385047.57147  21390570.730    21390570.846    21390574.302
  -9453840.47749  -7352812.92945  24683544.101    24683542.859    24683546.693
 -13283556.66949  -9535498.29045  23078548.159    23078548.683    23078552.836
 02  1 10  0 41 30.0000000  0  8G20G24G13G11G 1G 4G25G 7
 -23584626.51349 -17921158.30447  21368732.618    21368732.105    21368735.038
  -5524936.08049  -4281719.24845  24579083.965    24579083.235    24579088.025
 -24661727.71649 -19184121.79748  20817152.347    20817152.625    20817154.877
  -3853233.98749  -2963682.36945  24428897.447    24428896.447    24428899.169
 -25852958.35249 -20053078.79648  20343632.052    20343631.637    20343635.381
 -22391913.30249 -17430946.14047  21379361.808    21379362.146    21379365.072
  -9382387.72649  -7297135.48745  24697141.032    24697141.205    24697142.442
 -13214153.25949  -9481417.76846  23091755.337    23091755.410    23091761.025
 02  1 10  0 42  0.0000000  0  8G20G24G13G11G 1G 4G25G 7
 -23526588.52749 -17875933.90647  21379776.914    21379776.429    21379779.523
  -5625620.99049  -4360175.03145  24559924.197    24559924.368    24559927.834
 -24716942.52349 -19227146.29848  20806645.309    20806645.499    20806648.056
  -3742668.21349  -2877527.22545  24449937.292    24449937.321    24449939.945
 -25837615.24049 -20041123.11548  20346551.736    20346551.376    20346555.083
 -22450400.90249 -17476520.89147  21368232.011    21368232.351    21368235.200
  -9310571.32849  -7241174.67145  24710807.227    24710806.824    24710812.325
 -13144428.34349  -9427086.70345  23105023.497    23105023.415    23105027.861
 02  1 10  0 42 30.0000000  0  8G20G24G13G11G 1G 4G25G 7
 -23468292.49949 -17830508.44447  21390870.331    21390869.649    21390872.802
  -5726208.90149  -4438555.20445  24540783.124    24540782.860    24540785.834
 -24771709.20749 -19269821.62348  20796223.513    20796223.874    20796226.162
  -3632013.01149  -2791302.40745  24470994.171    24470993.814    24470996.285
 -25821804.09349 -20028802.73848  20349560.501    20349560.123    20349563.892
 -22508472.86549 -17521771.76847  21357181.323    21357181.611    21357184.749
  -9238395.24349  -7184933.56645  24724541.923    24724541.276    24724544.415
 -13074386.75749  -9372508.87445  23118351.945    23118351.318    23118356.820
 02  1 10  0 43  0.0000000  0  8G20G24G13G11G 1G 4G25G 7
 -23409737.14249 -17784880.91147  21402013.104    21402012.425    21402015.690
  -5826696.44449  -4516857.14545  24521660.842    24521661.107    24521664.852
 -24826025.52749 -19312146.01548  20785887.451    20785887.599    20785890.170
  -3521268.69949  -2705008.11945  24492068.223    24492067.724    24492070.757
 -25805524.38849 -20016117.25448  20352658.415    20352658.058    20352661.647
 -22566125.61249 -17566695.98947  21346210.385    21346210.676    21346213.736
  -9165859.51749  -7128412.21445  24738345.072    24738345.760    24738347.460
 -13004029.53249  -9317685.11145  23131740.428    23131740.319    23131746.271
 02  1 10  0 43 30.0000000  0  9G20G24G13G11G27G 1G 4G25G 7
 -23350924.88349 -17739053.19147  21413204.715    21413203.917    21413206.979
  -5927083.07849  -4595080.49545  24502558.035    24502556.323    24502561.144
 -24879892.36549 -19354120.15048  20775636.900    20775637.156    20775639.656
  -3410439.00649  -2618647.31145  24513158.361    24513157.824    24513161.791
   -912293.15049   -692286.63745  24889713.155    24889712.680    24889718.050
 -25788779.18749 -20003069.04248  20355844.947    20355844.612    20355848.184
 -22623358.87249 -17611293.33147  21335319.262    21335319.456    21335322.338
  -9092968.43149  -7071613.93845  24752215.894    24752214.938    24752220.940
 -12933361.34449  -9262619.06145  23145188.229    23145187.330    23145192.895
 02  1 10  0 44  0.0000000  0  9G20G24G13G11G27G 1G 4G25G 7
 -23291855.91749 -17693025.43247  21424445.158    21424444.516    21424447.828
  -6027366.57549  -4673223.47945  24483474.727    24483474.743    24483476.818
 -24933309.17849 -19395743.62448  20765472.055    20765472.453    20765474.619
  -3299525.77749  -2532221.42945  24534264.301    24534264.262    24534267.427
  -1013498.48449   -771147.93745  24870454.412    24870454.553    24870458.590
 -25771569.51649 -19989658.90448  20359119.828    20359119.515    20359123.314
 -22680170.18549 -17655561.88647  21324508.400    21324508.460    21324511.897
  -9019723.65349  -7014540.06445  24766153.966    24766153.519    24766156.656
 -12862384.81449  -9207312.70945  23158694.706    23158694.689    23158699.735
 02  1 10  0 44 30.0000000  0  9G20G24G13G11G27G 1G 4G25G 7
 -23232530.04749 -17646797.49747  21435734.428    21435733.620    21435736.727
  -6127543.86149  -4751283.67145  24464411.608    24464412.380    24464415.816
 -24986274.06149 -19437014.94648  20755393.170    20755393.280    20755395.724
  -3188530.01549  -2445731.20445  24555386.459    24555385.690    24555388.316
  -1114723.45749   -850024.52045  24851191.978    24851191.628    24851196.039
 -25753895.52949 -19975886.96648  20362483.135    20362483.066    20362486.246
 -22736556.79949 -17699499.51447  21313778.426    21313778.738    21313781.769
  -8946127.01349  -6957191.99645  24780158.969    24780158.713    24780162.418
 -12791101.74449  -9151767.50046  23172259.638    23172259.579    23172264.195
 02  1 10  0 45  0.0000000  0  9G20G24G13G11G27G 1G 4G25G 7
 -23172947.14949 -17600369.27447  21447072.692    21447071.951    21447075.422
  -6227612.50349  -4829259.20345  24445369.095    24445368.154    24445372.460
 -25038786.14449 -19477933.43448  20745400.453    20745400.538    20745402.980
  -3077453.41649  -2359178.01145  24576523.500    24576523.637    24576526.668
  -1215965.52449   -928914.42445  24831926.083    24831924.836    24831930.446
 -25735758.29749 -19961754.05048  20365934.522    20365934.127    20365937.839
 -22792516.24049 -17743104.26847  21303129.711    21303129.780    21303132.807
  -8872180.14649  -6899571.05645  24794230.573    24794230.851    24794234.404
 -12719514.69149  -9095985.42646  23185882.273    23185881.009    23185887.565
 02  1 10  0 45 30.0000000  0  9G20G24G13G11G27G 1G 4G25G 7
 -23113107.76549 -17553741.19947  21458459.713    21458458.968    21458462.254
  -6327570.61849  -4907148.66345  24426347.673    24426347.372    24426350.770
 -25090844.46049 -19518498.34148  20735494.093    20735494.256    20735496.748
  -2966297.69249  -2272563.15645  24597675.722    24597674.234    24597678.576
  -1317222.12049  -1007815.63745  24812657.440    24812655.886    24812660.987
 -25717158.81349 -19947260.94348  20369473.901    20369473.807    20369477.213
 -22848046.34249 -17786374.47747  21292562.642    21292562.995    21292565.933
  -8797884.63849  -6841678.44845  24808368.547    24808368.374    24808370.484
 -12647626.19149  -9039968.46746  23199562.131    23199561.947    23199566.777
 02  1 10  0 46  0.0000000  0  9G20G24G13G11G27G 1G 4G25G 7
 -23053012.44749 -17506913.69347  21469895.439    21469894.641    21469898.163
  -6427415.82149  -4984950.08745  24407347.713    24407347.245    24407352.167
 -25142448.42249 -19558709.20148  20725674.155    20725674.254    20725676.683
  -2855064.61949  -2185888.03345  24618842.727    24618842.940    24618844.800
  -1418490.64249  -1086726.17045  24793386.646    24793386.636    24793390.479
 -25698098.24849 -19932408.54548  20373101.008    20373100.576    20373104.126
 -22903144.87249 -17829308.39947  21282077.747    21282077.754    21282080.933
